,Unnamed: 0,Codigo,Nombre,Barrio,Comuna,Población,Departamento,Dirección,Street,Number,Street_Type,Street_Number,Number_partA,Number_partB,Dirección Geo,latitude,longitude
3,3,20007444,Julio,Aranjuez,ARANJUEZ,Medellin,Antioquia,CR 50C#93-119,CR 50C,93-119,CR,50C,93,119,CR 50C #93-119,6.2856888999999985,-75.55984690000001
4,4,20007452,Distribuidora 2,San Isidro,ARANJUEZ,Medellin,Antioquia,CR 53#93-68,CR 53,93-68,CR,53,93,68,CR 53 #93-68,6.285989900000001,-75.5629532
5,5,20007733,Paiz,Aranjuez,ARANJUEZ,Medellin,Antioquia,CR 50B#93-59,CR 50B,93-59,CR,50B,93,59,CR 50B #93-59,6.2851637999999985,-75.55923229999998
6,6,20009871,Tienda La Esquina,Not Specified,ARANJUEZ,Medellin,Antioquia,CL 96#52-71,CL 96,52-71,CL,96,52,71,CL 96 #52-71,6.2885849999999985,-75.56317659999998
12,12,20014922,Tienda Danna,Not Specified,ROBLEDO,Medellin,Antioquia,CR 95 A#70 GB-100 TORRE 38 APT,CR 95 A,70 GB-100 TORRE 38 APT,CR,95 A,70 GB,100 TORRE 38 APT,CR 95A #70GB-100 TORRE 38 APT,6.287601400000001,-75.5979849
13,13,20014923,Granero El Plan 2,Not Specified,SANTA CRUZ,Medellin,Antioquia,CR 49B#120-03,CR 49B,120-03,CR,49B,120,03,CR 49B #120-03,6.3042951999999985,-75.55113709999998
14,14,20014924,Tienda Doña Gloria,Not Specified,SANTA CRUZ,Medellin,Antioquia,CR 47#110-62,CR 47,110-62,CR,47,110,62,CR 47 #110-62,6.3001469000000005,-75.55028120000001
15,15,20014925,Mercados Rapunzel,Not Specified,EL POBLADO,Medellin,Antioquia,CL 70 GB#95-96  TORRE 31 APT 9,CL 70 GB,95-96  TORRE 31 APT 9,CL,70 GB,95,96  TORRE 31 APT 9,CL 70GB #95-96  TORRE 31 APT 9,6.2097013,-75.56958510000003
16,16,20014926,Yuri Donde Michel,Not Specified,EL POBLADO,Medellin,Antioquia,CL 70GA#95-28 TORRE 15 APT 960,CL 70GA,95-28 TORRE 15 APT 960,CL,70GA,95,28 TORRE 15 APT 960,CL 70GA #95-28 TORRE 15 APT 960,6.2097013,-75.56958510000003
17,17,20014927,La Esquina,Not Specified,CASTILLA,Medellin,Antioquia,CL 113CC # 63 - 30,CL 113CC , 63 - 30,CL,113CC , 63 , 30,CL 113CC #63- 30,6.3084375,-75.55884609999998
18,18,20014928,Super Tienda Los Lopez,Not Specified,EL POBLADO,Medellin,Antioquia,CL 70GA#95-138 TORRE 33 APT 97,CL 70GA,95-138 TORRE 33 APT 97,CL,70GA,95,138 TORRE 33 APT 97,CL 70GA #95-138 TORRE 33 APT 97,6.2129827,-75.5607848
19,19,20014929,La Tirnda V,Not Specified,SAN JAVIER,Medellin,Antioquia,CL 70G#95-115 TORRE 27 APT 960,CL 70G,95-115 TORRE 27 APT 960,CL,70G,95,115 TORRE 27 APT 960,CL 70G #95-115 TORRE 27 APT 960,6.2542535,-75.6257748
20,20,20014930,Tienda Sandra,Not Specified,POPULAR,Medellin,Antioquia,CRA 42C # 107E - 42,CRA 42C , 107E - 42,CRA,42C , 107E , 42,CRA 42C #107E- 42,6.2966571999999985,-75.5476918
21,21,20014931,Colibri,Not Specified,ARANJUEZ,Medellin,Antioquia,CL 70F#95-10 TORRE 1 APT 9602,CL 70F,95-10 TORRE 1 APT 9602,CL,70F,95,10 TORRE 1 APT 9602,CL 70F #95-10 TORRE 1 APT 9602,6.2676615,-75.56730900000002
22,22,20014932,Tienda La Curva,Not Specified,VILLA HERMOSA,Medellin,Antioquia,CL 56B#19-22,CL 56B,19-22,CL,56B,19,22,CL 56B #19-22,6.242433399999999,-75.54264789999998
26,26,20014936,Panaderia Las Delicias,Not Specified,ARANJUEZ,Medellin,Antioquia,CL 70 F#95-18 TORRE 1 APT 9603,CL 70 F,95-18 TORRE 1 APT 9603,CL,70 F,95,18 TORRE 1 APT 9603,CL 70F #95-18 TORRE 1 APT 9603,6.2676615,-75.56730900000002
28,28,20014938,Tienda Mixta Claun,Not Specified,GUAYABAL,Medellin,Antioquia,CR 55#22A-17,CR 55,22A-17,CR,55,22A,17,CR 55 #22A-17,6.224523599999999,-75.58218620000001
30,30,20014940,Licorera Estefanny,Not Specified,DOCE DE OCTUBRE,Medellin,Antioquia,CR 77B#108-64,CR 77B,108-64,CR,77B,108,64,CR 77B #108-64,6.3072716999999985,-75.57415619999998
31,31,20014941,Tienda Mixta Guadalupe,Not Specified,BUENOS AIRES,Medellin,Antioquia,CL 46 # 32 - 30,CL 46 , 32 - 30,CL,46 , 32 , 30,CL 46 #32- 30,6.2393003999999985,-75.55586339999998
36,36,20006976,La Ventanita De Edelmira,Not Specified,SANTA CRUZ,Medellin,Antioquia,CR 49A#110-147,CR 49A,110-147,CR,49A,110,147,CR 49A #110-147,6.301235399999999,-75.5517301
49,49,20009929,Margarita,Not Specified,POPULAR,Medellin,Antioquia,CL 103 # 40- 22,CL 103 , 40- 22,CL,103 , 40, 22,CL 103 #40- 22,6.292374499999998,-75.54835920000001
54,54,20009677,Los Recuerdos De Ella,Las Brisas,CASTILLA,Medellin,Antioquia,CL 113A#64C-62,CL 113A,64C-62,CL,113A,64C,62,CL 113A #64C-62,6.3084479999999985,-75.5620765
62,62,20014558,Las Estrellas,Not Specified,SAN JAVIER,Medellin,Antioquia,CR 92 # 92-02 INTERIOR 323 TORRE,CR 92 , 92-02 INTERIOR 323 TORRE,CR,92 , 92,02 INTERIOR 323 TORRE,CR 92 #92-02 INTERIOR 323 TORRE,6.2469896999999985,-75.6163553
72,72,20005764,El Progreso,Arajuez,ARANJUEZ,Medellin,Antioquia,CR 51 # 95 - 28,CR 51 , 95 - 28,CR,51 , 95 , 28,CR 51 #95- 28,6.2876078999999985,-75.56070969999998
75,75,20007680,La Terminal,Not Specified,ARANJUEZ,Medellin,Antioquia,CR 45 A # 95-61,CR 45 A , 95-61,CR,45 A , 95,61,CR 45A #95-61,6.2868889999999995,-75.5528415
76,76,20008230,Frutas Y Verduras La 40,Villa Guadalupe,POPULAR,Medellin,Antioquia,CR 40 # 96-44,CR 40 , 96-44,CR,40 , 96,44,CR 40 #96-44,6.2875422,-75.5489353
77,77,20013087,Tienda Pacho,Girardot,CASTILLA,Medellin,Antioquia,CL 103 C # 65-30,CL 103 C , 65-30,CL,103 C , 65,30,CL 103C #65-30,6.2978628,-75.56739519999998
80,80,20005769,Mecateadero Madre Laura,Not Specified,ARANJUEZ,Medellin,Antioquia,CR 53 # 93 -54,CR 53 , 93 -54,CR,53 , 93 ,54,CR 53 #93-54,6.285852999999999,-75.5629194
89,89,20013394,Tienda Maso,Carpinelo,MANRIQUE,Medellin,Antioquia,CR 22B # 90 A-63 INT 121,CR 22B , 90 A-63 INT 121,CR,22B , 90 A,63 INT 121,CR 22B #90A-63 INT 121,6.2803394,-75.53946690000001
93,93,20006544,Tienda El Plan Numero 1,Carpinelo,POPULAR,Medellin,Antioquia,CL 100 BB # 30BB -07,CL 100 BB , 30BB -07,CL,100 BB , 30BB ,07,CL 100BB #30BB-07,6.2909098,-75.5400433
97,97,20011182,La Tienda Víctor,Barrio Pablo Escobar,EL POBLADO,Medellin,Antioquia,CL 38C # 26-34,CL 38C , 26-34,CL,38C , 26,34,CL 38C #26-34,6.2103788,-75.5581876
100,100,20011878,Arcoiris,Ocho De Marzo,LA CANDELARIA,Medellin,Antioquia,CL 49 # 1 AA - 45,CL 49 , 1 AA - 45,CL,49 , 1 AA , 45,CL 49 #1AA- 45,6.252828500000001,-75.57554429999998
101,101,20014162,La Bendición De Korin,Not Specified,ARANJUEZ,Medellin,Antioquia,CR 55#89A-45,CR 55,89A-45,CR,55,89A,45,CR 55 #89A-45,6.282788000000001,-75.56585770000001
109,109,20009114,El Eden,Picachito,DOCE DE OCTUBRE,Medellin,Antioquia,CL 101 # 85-56,CL 101 , 85-56,CL,101 , 85,56,CL 101 #85-56,6.301807900000001,-75.5842042
110,110,20008652,Marina Tienda,Villatina,VILLA HERMOSA,Medellin,Antioquia,CL 56#14B-104,CL 56,14B-104,CL,56,14B,104,CL 56 #14B-104,6.2380368,-75.53889009999999
114,114,20009115,La Alcancía,Picachito,DOCE DE OCTUBRE,Medellin,Antioquia,CR 85 # 98A-10,CR 85 , 98A-10,CR,85 , 98A,10,CR 85 #98A-10,6.299328,-75.58462270000001
118,118,20009950,La 23,Carpinelo,POPULAR,Medellin,Antioquia,CR 23 # 102 C- 59,CR 23 , 102 C- 59,CR,23 , 102 C, 59,CR 23 #102C- 59,6.2923824999999995,-75.5383051
121,121,20008682,Tienda Taty,Not Specified,VILLA HERMOSA,Medellin,Antioquia,CR 14 # 55 -25,CR 14 , 55 -25,CR,14 , 55 ,25,CR 14 #55-25,6.2387947,-75.5380611
122,122,20006590,Tienda Reja Blanca,Santo Domingo Savio Nº 1,POPULAR,Medellin,Antioquia,CR 31 # 102 A -14,CR 31 , 102 A -14,CR,31 , 102 A ,14,CR 31 #102A-14,6.2991838,-75.54143239999998
129,129,20010795,La Cantaleta,Juan Pablo Ii,BUENOS AIRES,Medellin,Antioquia,CR 1A#48-08,CR 1A,48-08,CR,1A,48,08,CR 1A #48-08,6.2297072999999985,-75.5285679
130,130,20010796,Panederia Juan Pablo,Not Specified,LA CANDELARIA,Medellin,Antioquia,CL 49A#2AB-45,CL 49A,2AB-45,CL,49A,2AB,45,CL 49A #2AB-45,6.2523279999999986,-75.56715729999998
131,131,20010797,Tienda Mile,San Antonio,LA CANDELARIA,Medellin,Antioquia,CL 45B SUR#83-173,CL 45B SUR,83-173,CL,45B SUR,83,173,CL 45BSUR #83-173,6.245736399999998,-75.5681838
134,134,20010800,Avicola Los Marin,Not Specified,LA CANDELARIA,Medellin,Antioquia,CL 48D SUR#56A-42,CL 48D SUR,56A-42,CL,48D SUR,56A,42,CL 48DSUR #56A-42,6.264012999999999,-75.57056639999998
136,136,20010803,La Palmita,Buenos Aires,EL POBLADO,Medellin,Antioquia,CR 8B#43D-52,CR 8B,43D-52,CR,8B,43D,52,CR 8B #43D-52,6.2113466000000015,-75.57247590000001
137,137,20014854,La Guadalupe,Not Specified,POPULAR,Medellin,Antioquia,CR 28#107-93,CR 28,107-93,CR,28,107,93,CR 28 #107-93,6.2952153,-75.5406806
138,138,20010806,Fruver Bilbao,San Antonio De Prado,SAN ANTONIO DE PRADO,Medellin,Antioquia,CR 60D#36C SUR-15,CR 60D,36C SUR-15,CR,60D,36C SUR,15,CR 60D #36CSUR-15,6.1854195,-75.6409125
140,140,20010809,Tienda La 85,Picacho,DOCE DE OCTUBRE,Medellin,Antioquia,CR 85#104-30,CR 85,104-30,CR,85,104,30,CR 85 #104-30,6.3072681,-75.58407199999998
142,142,20010811,Granero Doble A,Buenos Aires,MANRIQUE,Medellin,Antioquia,CR 44A#10C-05,CR 44A,10C-05,CR,44A,10C,05,CR 44A #10C-05,6.2681258,-75.55421590000002
144,144,20010812,Tienda Lolita,San Antonio De Prado,SAN ANTONIO DE PRADO,Medellin,Antioquia,CR 60D#36SUR-04,CR 60D,36SUR-04,CR,60D,36SUR,04,CR 60D #36SUR-04,6.1854195,-75.6409125
145,145,20010813,Granero Juan Santi,Not Specified,BUENOS AIRES,Medellin,Antioquia,CL 44#10-12,CL 44,10-12,CL,44,10,12,CL 44 #10-12,6.226809599999998,-75.54353559999998
148,148,20010816,Tienda De Oti,Not Specified,BUENOS AIRES,Medellin,Antioquia,CL 45#15C-27,CL 45,15C-27,CL,45,15C,27,CL 45 #15C-27,6.2324155999999995,-75.54569609999999
149,149,20010818,El Montañero,Picacho,DOCE DE OCTUBRE,Medellin,Antioquia,CR 83A#104DB-10,CR 83A,104DB-10,CR,83A,104DB,10,CR 83A #104DB-10,6.296392200000001,-75.58361459999998
152,152,20010821,El Punto O Del Gusto,Picacho,DOCE DE OCTUBRE,Medellin,Antioquia,CR 83A#104DD-21,CR 83A,104DD-21,CR,83A,104DD,21,CR 83A #104DD-21,6.296392200000001,-75.58361459999998
154,154,20010824,Deli Mix,Los Cerros - El Vergel,BUENOS AIRES,Medellin,Antioquia,CL 45G#15B-42,CL 45G,15B-42,CL,45G,15B,42,CL 45G #15B-42,6.232303099999998,-75.5436153
155,155,20010825,De Jesús,Buenos Aires,BUENOS AIRES,Medellin,Antioquia,CR 18#48-35,CR 18,48-35,CR,18,48,35,CR 18 #48-35,6.2364462,-75.54605149999998
156,156,20010826,Ventiadero,San Antonio,BELEN,Medellin,Antioquia,CR 69B#36C SUR-25,CR 69B,36C SUR-25,CR,69B,36C SUR,25,CR 69B #36CSUR-25,6.2328869000000005,-75.59054420000001
160,160,20010832,Granero J Y S,Picacho,DOCE DE OCTUBRE,Medellin,Antioquia,CR 85#104-10,CR 85,104-10,CR,85,104,10,CR 85 #104-10,6.3072681,-75.58407199999998
161,161,20010833,Tienda Ruby,Not Specified,DOCE DE OCTUBRE,Medellin,Antioquia,CL 106A#81-102,CL 106A,81-102,CL,106A,81,102,CL 106A #81-102,6.307844999999999,-75.5784914
162,162,20010834,Ventanita Azul,Not Specified,SAN ANTONIO DE PRADO,Medellin,Antioquia,TV 48B SUR#61C-33,TV 48B SUR,61C-33,TV,48B SUR,61C,33,TV 48BSUR #61C-33,6.1786226,-75.65332649999998
163,163,20010835,Tienda Goez,Doce De Octubre Nº 1,DOCE DE OCTUBRE,Medellin,Antioquia,CR 82#106A-14,CR 82,106A-14,CR,82,106A,14,CR 82 #106A-14,6.3079440999999985,-75.5788723
164,164,20010836,Granero Jdc,Doce De Octubre Nº 1,DOCE DE OCTUBRE,Medellin,Antioquia,CL 104DD#82B-03,CL 104DD,82B-03,CL,104DD,82B,03,CL 104DD #82B-03,6.3059995,-75.57925859999999
165,165,20010837,Kiosko Verde,Not Specified,EL POBLADO,Medellin,Antioquia,CR 82E#104DD-21,CR 82E,104DD-21,CR,82E,104DD,21,CR 82E #104DD-21,6.197542700000001,-75.5588351
168,168,20010840,La Ventanita Blanca,Not Specified,BUENOS AIRES,Medellin,Antioquia,CL 50#35-40,CL 50,35-40,CL,50,35,40,CL 50 #35-40,6.243716999999998,-75.5563804
171,171,20005919,Tienda Isaac,Limonar 1,LA CANDELARIA,Medellin,Antioquia,CR 64D # 56A SUR-06,CR 64D , 56A SUR-06,CR,64D , 56A SUR,06,CR 64D #56ASUR-06,6.2476376,-75.56581530000003
172,172,20013258,Tiende Bere,Granizal,POPULAR,Medellin,Antioquia,CL 101C # 35A - 119,CL 101C , 35A - 119,CL,101C , 35A , 119,CL 101C #35A- 119,6.2899001,-75.53815449999998
174,174,20006989,Reja Azul,Not Specified,SANTA CRUZ,Medellin,Antioquia,CR 49 A # 107 - 168,CR 49 A , 107 - 168,CR,49 A , 107 , 168,CR 49A #107- 168,6.2985481,-75.55319469999998
175,175,20013272,Variedades Sm,Caicedo,SAN ANTONIO DE PRADO,Medellin,Antioquia,CL 55 SUR # 43 A - 72,CL 55 SUR , 43 A - 72,CL,55 SUR , 43 A , 72,CL 55SUR #43A- 72,6.1754384999999985,-75.6369275
184,184,20010841,La Tienda De Adan,San Antonio,VILLA HERMOSA,Medellin,Antioquia,TV 48B SUR#61C-109 INT 101,TV 48B SUR,61C-109 INT 101,TV,48B SUR,61C,109 INT 101,TV 48BSUR #61C-109 INT 101,6.2392645,-75.5400433
193,193,20010851,Tienda Rosa,Doce De Octubre Nº 1,DOCE DE OCTUBRE,Medellin,Antioquia,CR 81#104C-43,CR 81,104C-43,CR,81,104C,43,CR 81 #104C-43,6.3056538,-75.5783671
194,194,20010852,4Esquinas,Doce De Octubre Nº 1,DOCE DE OCTUBRE,Medellin,Antioquia,CL 104 C # 78 B 20 - 12,CL 104 C , 78 B 20 - 12,CL,104 C , 78 B 20 , 12,CL 104C #78B20- 12,6.3050761,-75.57657379999998
195,195,20010853,Mercados El Jardin,Doce De Octubre N 1,DOCE DE OCTUBRE,Medellin,Antioquia,CL 106#82A-38,CL 106,82A-38,CL,106,82A,38,CL 106 #82A-38,6.3072987000000005,-75.5794592
196,196,20010854,Salsamentaria Genial,Doce De Octubre 1,DOCE DE OCTUBRE,Medellin,Antioquia,CL 104 D # 82 B - 52,CL 104 D , 82 B - 52,CL,104 D , 82 B , 52,CL 104D #82B- 52,6.3059099000000005,-75.5796422
197,197,20009116,Mercado Juanfer,Florencia,CASTILLA,Medellin,Antioquia,CL 117#68A-01,CL 117,68A-01,CL,117,68A,01,CL 117 #68A-01,6.3105945,-75.56632990000001
198,198,20009118,Everest,Picachito,DOCE DE OCTUBRE,Medellin,Antioquia,CR 86BB#98BB-18,CR 86BB,98BB-18,CR,86BB,98BB,18,CR 86BB #98BB-18,6.299459,-75.58302499999998
199,199,20009119,Granero Naranjo,Picachito,DOCE DE OCTUBRE,Medellin,Antioquia,CR 85#98D-27,CR 85,98D-27,CR,85,98D,27,CR 85 #98D-27,6.3007759000000005,-75.5840642
200,200,20009121,Él Encanto,Not Specified,CASTILLA,Medellin,Antioquia,CR 70#112-04,CR 70,112-04,CR,70,112,04,CR 70 #112-04,6.3083073,-75.5680935
201,201,20009122,La Virgencita,Florencia,CASTILLA,Medellin,Antioquia,CL 113#68A-67,CL 113,68A-67,CL,113,68A,67,CL 113 #68A-67,6.308726099999999,-75.56706779999998
204,204,20009125,Tienda Arley,Picacho,DOCE DE OCTUBRE,Medellin,Antioquia,CL 102A#84C-23,CL 102A,84C-23,CL,102A,84C,23,CL 102A #84C-23,6.3046678,-75.5830337
206,206,20009128,Tienda Jose,Not Specified,DOCE DE OCTUBRE,Medellin,Antioquia,CR 83B#98B-14,CR 83B,98B-14,CR,83B,98B,14,CR 83B #98B-14,6.299032,-75.5827178
207,207,20009129,Cisneros,Florencia,CASTILLA,Medellin,Antioquia,CL 112A#68A-111,CL 112A,68A-111,CL,112A,68A,111,CL 112A #68A-111,6.3084462,-75.56766280000001
210,210,20009134,Granero 112,Florencia,CASTILLA,Medellin,Antioquia,CL 112#68A-03,CL 112,68A-03,CL,112,68A,03,CL 112 #68A-03,6.307791700000001,-75.56699019999998
211,211,20009135,El Campiador,Florencia,CASTILLA,Medellin,Antioquia,CL 111#67-110,CL 111,67-110,CL,111,67,110,CL 111 #67-110,6.306901499999999,-75.5669285
212,212,20009136,Sofiju,Not Specified,CASTILLA,Medellin,Antioquia,CL 118#68A-07,CL 118,68A-07,CL,118,68A,07,CL 118 #68A-07,6.310941099999999,-75.5666691
215,215,20009139,Panadería La Terminal,Doce De Octubre Nº 1,DOCE DE OCTUBRE,Medellin,Antioquia,CR 80#102A-11,CR 80,102A-11,CR,80,102A,11,CR 80 #102A-11,6.3027258,-75.5787496
216,216,20009140,El Parche De Patry,Not Specified,DOCE DE OCTUBRE,Medellin,Antioquia,CR 77B#103-36,CR 77B,103-36,CR,77B,103,36,CR 77B #103-36,6.3029166,-75.57656899999998
217,217,20009141,Tienda Legumbre La Bendición,Picachito,DOCE DE OCTUBRE,Medellin,Antioquia,CR 86 # 98-07,CR 86 , 98-07,CR,86 , 98,07,CR 86 #98-07,6.2997203,-75.585324
218,218,20009142,Lativer,Doce De Octubre  1,Comuna 6,Medellin,Not Specified,CR 76 # 101 AA  21,CR 76 , 101 AA  21,CR,76 , 101 AA  21,,CR 76 #101AA21,,
219,219,20009143,Mekateadero La Pista,Doce De Octubre Nº 1,DOCE DE OCTUBRE,Medellin,Antioquia,CL 102#76B-04,CL 102,76B-04,CL,102,76B,04,CL 102 #76B-04,6.301196,-75.57658769999998
220,220,20009144,Puerta Blanca,Not Specified,CASTILLA,Medellin,Antioquia,CL 111A#68A-64,CL 111A,68A-64,CL,111A,68A,64,CL 111A #68A-64,6.3076761,-75.56757329999998
221,221,20009145,Tienda Pablo,Not Specified,CASTILLA,Medellin,Antioquia,TV 78#65-219,TV 78,65-219,TV,78,65,219,TV 78 #65-219,6.2746746,-75.5754023
222,222,20009146,Sura Pan,Caribe,CASTILLA,Medellin,Antioquia,TV 78#65-351,TV 78,65-351,TV,78,65,351,TV 78 #65-351,6.2753653,-75.5741974
223,223,20009147,Tienda Lina,Caribe,CASTILLA,Medellin,Antioquia,CL 72#67-1,CL 72,67-1,CL,72,67,1,CL 72 #67-1,6.2727422,-75.5788966
224,224,20009148,Dna Marta,Caribe,CASTILLA,Medellin,Antioquia,CR 65C#72-207,CR 65C,72-207,CR,65C,72,207,CR 65C #72-207,6.2709627,-75.57315990000001
225,225,20009149,El Perico,Not Specified,CASTILLA,Medellin,Antioquia,CR 64C#74-41,CR 64C,74-41,CR,64C,74,41,CR 64C #74-41,6.2730051,-75.5734075
226,226,20009150,El Trebol 1,Not Specified,CASTILLA,Medellin,Antioquia,CR 64C#75-63,CR 64C,75-63,CR,64C,75,63,CR 64C #75-63,6.2737612,-75.573064
227,227,20009152,La Gran Familia,Not Specified,CASTILLA,Medellin,Antioquia,TV 78#65-397,TV 78,65-397,TV,78,65,397,TV 78 #65-397,6.2743278999999985,-75.57675040000001
228,228,20009153,Multi Servisios,Not Specified,CASTILLA,Medellin,Antioquia,TV 78#65-497,TV 78,65-497,TV,78,65,497,TV 78 #65-497,6.274060299999999,-75.5774814
229,229,20009154,Cuidarla Industrial,Caribe,CASTILLA,Medellin,Antioquia,CL 72#64C-151,CL 72,64C-151,CL,72,64C,151,CL 72 #64C-151,6.2699137999999985,-75.57518780000001
230,230,20009155,Cafetería Aide,Castilla,CASTILLA,Medellin,Antioquia,CR 64C#74-11,CR 64C,74-11,CR,64C,74,11,CR 64C #74-11,6.2727325,-75.57347659999998
231,231,20009156,Granero Y Legumbreria Leo,Castilla,CASTILLA,Medellin,Antioquia,CR 64C#75-29,CR 64C,75-29,CR,64C,75,29,CR 64C #75-29,6.273529900000001,-75.57333759999999
232,232,20009157,La Reja Cafe,Florencia,CASTILLA,Medellin,Antioquia,CL 115#75-85,CL 115,75-85,CL,115,75,85,CL 115 #75-85,6.3104605000000005,-75.57085459999998
233,233,20009158,Tienda Doli,Castilla,CASTILLA,Medellin,Antioquia,CR 64C#75A-09,CR 64C,75A-09,CR,64C,75A,09,CR 64C #75A-09,6.2741129,-75.5732304
234,234,20009159,Tienda Reja Gris,Not Specified,CASTILLA,Medellin,Antioquia,CL 114#75-63,CL 114,75-63,CL,114,75,63,CL 114 #75-63,6.3099848,-75.5708076
236,236,20009164,Autoservicio Henry,Not Specified,CASTILLA,Medellin,Antioquia,CR 75#112-31,CR 75,112-31,CR,75,112,31,CR 75 #112-31,6.309332700000001,-75.5706063
237,237,20009165,Tienda Mabel,Not Specified,CASTILLA,Medellin,Antioquia,CL 113#74-20,CL 113,74-20,CL,113,74,20,CL 113 #74-20,6.3093724,-75.56969090000001
240,240,20009169,La Buena Esquina,Florencia,CASTILLA,Medellin,Antioquia,CR 74#114-09,CR 74,114-09,CR,74,114,09,CR 74 #114-09,6.309768900000001,-75.5695526
244,244,20009174,Autoservisiobsan Judas,Castilla,DOCE DE OCTUBRE,Medellin,Antioquia,CL 96 # 72A-40,CL 96 , 72A-40,CL,96 , 72A,40,CL 96 #72A-40,6.2923775,-75.57551600000001
245,245,20009175,Donde Fe,Tejelo,DOCE DE OCTUBRE,Medellin,Antioquia,CL 106B#72-19,CL 106B,72-19,CL,106B,72,19,CL 106B #72-19,6.3047585999999995,-75.5701464
246,246,20009176,La Ventanita De Vale,Not Specified,BUENOS AIRES,Medellin,Antioquia,CR 33A#35-53,CR 33A,35-53,CR,33A,35,53,CR 33A #35-53,6.2330874000000005,-75.5601506
247,247,20009179,El Gancho,Tejelo,DOCE DE OCTUBRE,Medellin,Antioquia,CR 70#106A-23,CR 70,106A-23,CR,70,106A,23,CR 70 #106A-23,6.3046133,-75.569161
248,248,20009180,Mis Sueños,Tejelo,CASTILLA,Medellin,Antioquia,CL 111#74-58,CL 111,74-58,CL,111,74,58,CL 111 #74-58,6.3086025,-75.570298
249,249,20009181,La Ventanita,Tejelo,CASTILLA,Medellin,Antioquia,CL 106A#67-59,CL 106A,67-59,CL,106A,67,59,CL 106A #67-59,6.3042653,-75.56731590000001
251,251,20009185,Mercado Tejelo,Not Specified,CASTILLA,Medellin,Antioquia,CR 68A#108-12,CR 68A,108-12,CR,68A,108,12,CR 68A #108-12,6.3057813,-75.56778659999998
252,252,20009186,La Curva,Doce De Octubre Nº 1,DOCE DE OCTUBRE,Medellin,Antioquia,CR 80#101A-22,CR 80,101A-22,CR,80,101A,22,CR 80 #101A-22,6.3007127,-75.5796854
253,253,20009187,Armando Banderas,Not Specified,DOCE DE OCTUBRE,Medellin,Antioquia,CL 101A#78-06,CL 101A,78-06,CL,101A,78,06,CL 101A #78-06,6.300326,-75.57839919999998
256,256,20009192,Tienda La Nueva,San Antonio De Prado,SAN ANTONIO DE PRADO,Medellin,Antioquia,CR 67#57SUR-40,CR 67,57SUR-40,CR,67,57SUR,40,CR 67 #57SUR-40,6.184306200000001,-75.65617990000001
263,263,20009199,Tienda Eris,Pedregal,DOCE DE OCTUBRE,Medellin,Antioquia,CL 100B#74C-17,CL 100B,74C-17,CL,100B,74C,17,CL 100B #74C-17,6.2990575999999985,-75.57723159999998
265,265,20007889,Granero Mixto Alex Restrepo,Moravia,ARANJUEZ,Medellin,Antioquia,CR 55#88-17,CR 55,88-17,CR,55,88,17,CR 55 #88-17,6.2812648,-75.56676650000001
267,267,20010855,Autoservicio Tribilin,Not Specified,DOCE DE OCTUBRE,Medellin,Antioquia,CR 81#103A-39,CR 81,103A-39,CR,81,103A,39,CR 81 #103A-39,6.304363299999999,-75.5788019
268,268,20010856,Tienda El Parquesito,Pedregal,DOCE DE OCTUBRE,Medellin,Antioquia,CL 104A#80-10,CL 104A,80-10,CL,104A,80,10,CL 104A #80-10,6.3047721,-75.57788509999999
269,269,20010857,Tienda La Curva,Doce De Octubre N 1,DOCE DE OCTUBRE,Medellin,Antioquia,CR 83#104DD-07,CR 83,104DD-07,CR,83,104DD,07,CR 83 #104DD-07,6.3079707,-75.58248910000002
270,270,20010858,Los Marinillos,Doce De Octubre N 1,DOCE DE OCTUBRE,Medellin,Antioquia,CL 106B#82A-37,CL 106B,82A-37,CL,106B,82A,37,CL 106B #82A-37,6.307876299999998,-75.579149
271,271,20010860,Mercados Mi Niño,Doce De Octubre N 1,DOCE DE OCTUBRE,Medellin,Antioquia,CR 81A#104C-61,CR 81A,104C-61,CR,81A,104C,61,CR 81A #104C-61,6.3057266,-75.578695
272,272,20010861,Ventana De Amparo,Doce De Octubre N 1,DOCE DE OCTUBRE,Medellin,Antioquia,"CR 82,A#104C-60","CR 82,A",104C-60,CR,"82,A",104C,60,"CR 82,A #104C-60",6.3056177999999985,-75.57906849999998
273,273,20010862,La Amistad,Not Specified,SAN ANTONIO DE PRADO,Medellin,Antioquia,CL 44 SUR#82B-33,CL 44 SUR,82B-33,CL,44 SUR,82B,33,CL 44SUR #82B-33,6.1829428,-75.655858
274,274,20010864,Nutri Hulados,Quinta Linda,BUENOS AIRES,Medellin,Antioquia,CL 40#15AA-10,CL 40,15AA-10,CL,40,15AA,10,CL 40 #15AA-10,6.2309306,-75.545385
275,275,20010865,Las 24 Hrs,Not Specified,EL POBLADO,Medellin,Antioquia,CL 40#15AA-10,CL 40,15AA-10,CL,40,15AA,10,CL 40 #15AA-10,6.211902599999998,-75.56522790000001
276,276,20010866,Salzamentaria Castillo,Not Specified,BUENOS AIRES,Medellin,Antioquia,CR 20B#47-3,CR 20B,47-3,CR,20B,47,3,CR 20B #47-3,6.236510900000001,-75.5479288
277,277,20010867,La Esquina Del Aguardientazo,Buenos Aires,BUENOS AIRES,Medellin,Antioquia,CR 15#35-140,CR 15,35-140,CR,15,35,140,CR 15 #35-140,6.237128999999999,-75.55605440000001
278,278,20010868,Salzamentaria Sy J,Buenos Aires,VILLA HERMOSA,Medellin,Antioquia,CR 19#34-82,CR 19,34-82,CR,19,34,82,CR 19 #34-82,6.250699,-75.54212820000001
279,279,20010869,La Gran Esquina,Not Specified,BUENOS AIRES,Medellin,Antioquia,CR 20#33-115,CR 20,33-115,CR,20,33,115,CR 20 #33-115,6.2275133999999985,-75.54818940000001
280,280,20010870,Helados Y Dulces,San Antonio,LA CANDELARIA,Medellin,Antioquia,CL 45 SUR#83C-41,CL 45 SUR,83C-41,CL,45 SUR,83C,41,CL 45SUR #83C-41,6.245736399999998,-75.5681838
281,281,20010872,Amistad,Not Specified,EL POBLADO,Medellin,Antioquia,CR 83A#42A SUR-24,CR 83A,42A SUR-24,CR,83A,42A SUR,24,CR 83A #42ASUR-24,6.1992837,-75.5761368
282,282,20010873,Granero Javajil,San Antonio,SAN ANTONIO DE PRADO,Medellin,Antioquia,CL 38SUR#85-39,CL 38SUR,85-39,CL,38SUR,85,39,CL 38SUR #85-39,6.189348700000001,-75.6640743
286,286,20010881,El Vecino,Villatina,VILLA HERMOSA,Medellin,Antioquia,CR 17A#54-63,CR 17A,54-63,CR,17A,54,63,CR 17A #54-63,6.2380285,-75.5410389
290,290,20010886,Mercado La Cancha,Ocho De Marzo,BUENOS AIRES,Medellin,Antioquia,CL 47E#1AA-55,CL 47E,1AA-55,CL,47E,1AA,55,CL 47E #1AA-55,6.229131,-75.52885979999998
291,291,20010890,La Gran Esquina,Buenos Aires,LA CANDELARIA,Medellin,Antioquia,CL 49A#1 ESTE-39,CL 49A,1 ESTE-39,CL,49A,1 ESTE,39,CL 49A #1ESTE-39,6.2456287,-75.5606586
292,292,20010891,El Ranchito,Not Specified,BUENOS AIRES,Medellin,Antioquia,CL 49A#2 ESTE-18,CL 49A,2 ESTE-18,CL,49A,2 ESTE,18,CL 49A #2ESTE-18,6.230198400000001,-75.5283585
293,293,20010892,Granero Arselia,Ocho De Marzo,BUENOS AIRES,Medellin,Antioquia,CL 49A#02-06,CL 49A,02-06,CL,49A,02,06,CL 49A #02-06,6.2298,-75.531312
295,295,20010893,Tienda Kike,Buenos Aires,BUENOS AIRES,Medellin,Antioquia,CR 8 B#43D-36,CR 8 B,43D-36,CR,8 B,43D,36,CR 8B #43D-36,6.227798,-75.5415996
296,296,20010894,Carpa Azul,Buenos Aires,BUENOS AIRES,Medellin,Antioquia,CR 8A#43E-12,CR 8A,43E-12,CR,8A,43E,12,CR 8A #43E-12,6.2257644,-75.5422528
297,297,20010895,Granero Serna,Buenos Aires,BUENOS AIRES,Medellin,Antioquia,CL 44#10-60,CL 44,10-60,CL,44,10,60,CL 44 #10-60,6.226826399999998,-75.54360179999998
298,298,20010896,Cuarta Generación,Not Specified,BUENOS AIRES,Medellin,Antioquia,CL 45#15C-85,CL 45,15C-85,CL,45,15C,85,CL 45 #15C-85,6.2327108,-75.54614980000001
299,299,20010897,J Y J,Not Specified,BUENOS AIRES,Medellin,Antioquia,CR 18#48-27,CR 18,48-27,CR,18,48,27,CR 18 #48-27,6.2363857000000005,-75.54608
300,300,20010898,Brosty Eric,Buenos Aires,BUENOS AIRES,Medellin,Antioquia,CL 49#29-22,CL 49,29-22,CL,49,29,22,CL 49 #29-22,6.2406548,-75.5521311
301,301,20010899,Autoservicio La Frontera,Not Specified,BUENOS AIRES,Medellin,Antioquia,CL 50#35-46,CL 50,35-46,CL,50,35,46,CL 50 #35-46,6.2437524999999985,-75.5564541
307,307,20010909,Granero 1 A,Not Specified,BUENOS AIRES,Medellin,Antioquia,CL 47C # 1AA - 66,CL 47C , 1AA - 66,CL,47C , 1AA , 66,CL 47C #1AA- 66,6.2287843999999986,-75.5288303
310,310,20010922,Granero La Cuchilla,Caicedo,LA CANDELARIA,Medellin,Antioquia,CL 52#5-08,CL 52,5-08,CL,52,5,08,CL 52 #5-08,6.2517809999999985,-75.5692275
311,311,20010923,Tienda Gabriel,Picachito,DOCE DE OCTUBRE,Medellin,Antioquia,CR 86#98D-25,CR 86,98D-25,CR,86,98D,25,CR 86 #98D-25,6.3014176000000015,-75.58449940000001
312,312,20010924,Tienda Neta,Picachito,DOCE DE OCTUBRE,Medellin,Antioquia,CR 85#101C-38,CR 85,101C-38,CR,85,101C,38,CR 85 #101C-38,6.302718,-75.58386879999998
313,313,20010926,Tienda Britanica,Los Mangos,VILLA HERMOSA,Medellin,Antioquia,CL 57CC#24 B-02,CL 57CC,24 B-02,CL,57CC,24 B,02,CL 57CC #24B-02,6.249136500000001,-75.5463642
317,317,20010936,Reja Negra,Picachito,DOCE DE OCTUBRE,Medellin,Antioquia,CL 98 B#84A-16,CL 98 B,84A-16,CL,98 B,84A,16,CL 98B #84A-16,6.2994107,-75.5841746
326,326,20009202,Juventud,Pedregal,DOCE DE OCTUBRE,Medellin,Antioquia,CL 101B#73A-85,CL 101B,73A-85,CL,101B,73A,85,CL 101B #73A-85,6.298924400000001,-75.5747343
329,329,20009206,Tienda La Luisa,Pedregal,DOCE DE OCTUBRE,Medellin,Antioquia,CR 84#100G-28,CR 84,100G-28,CR,84,100G,28,CR 84 #100G-28,6.300919299999999,-75.58302309999998
331,331,20009208,Tienda Clicconlinet,Not Specified,CASTILLA,Medellin,Antioquia,CL 108#67-12,CL 108,67-12,CL,108,67,12,CL 108 #67-12,6.3053097000000005,-75.56675820000001
332,332,20009209,Salsamentaria,Boyacá,CASTILLA,Medellin,Antioquia,CR 67#106A-06,CR 67,106A-06,CR,67,106A,06,CR 67 #106A-06,6.304367500000001,-75.56681739999998
334,334,20009211,Distrifruver La 76,Pedregal,DOCE DE OCTUBRE,Medellin,Antioquia,CR 76#102B-12,CR 76,102B-12,CR,76,102B,12,CR 76 #102B-12,6.301059700000001,-75.5752768
335,335,20009212,Vaneli,Not Specified,ROBLEDO,Medellin,Antioquia,CR 72B#85-58,CR 72B,85-58,CR,72B,85,58,CR 72B #85-58,6.2791855000000005,-75.58137430000001
336,336,20009213,Gro 93,Pedregal,CASTILLA,Medellin,Antioquia,CL 93 # 68 - 40,CL 93 , 68 - 40,CL,93 , 68 , 40,CL 93 #68- 40,6.287584099999999,-75.5735898
337,337,20009215,Costeño,Pedregal,DOCE DE OCTUBRE,Medellin,Antioquia,CL 103C#76-73,CL 103C,76-73,CL,103C,76,73,CL 103C #76-73,6.301857900000001,-75.57536879999998
338,338,20009216,Juan J,Castilla,DOCE DE OCTUBRE,Medellin,Antioquia,CL 97#72A-39,CL 97,72A-39,CL,97,72A,39,CL 97 #72A-39,6.2933902,-75.575194
339,339,20009217,Mi Sol,Castilla,DOCE DE OCTUBRE,Medellin,Antioquia,CR 72B#97-77,CR 72B,97-77,CR,72B,97,77,CR 72B #97-77,6.2941645,-75.57513949999998
341,341,20009219,La 98,Castilla,DOCE DE OCTUBRE,Medellin,Antioquia,CL 98 # 72-35,CL 98 , 72-35,CL,98 , 72,35,CL 98 #72-35,6.2946106,-75.57425359999998
342,342,20009221,La Reja Negra,Not Specified,DOCE DE OCTUBRE,Medellin,Antioquia,CR 72A#95-31,CR 72A,95-31,CR,72A,95,31,CR 72A #95-31,6.2912636000000015,-75.57559559999999
343,343,20009223,La Tienda De D D,Not Specified,DOCE DE OCTUBRE,Medellin,Antioquia,CR 72#94-5,CR 72,94-5,CR,72,94,5,CR 72 #94-5,6.2896158,-75.5756948
344,344,20009224,La Puerta Azul,Castilla,DOCE DE OCTUBRE,Medellin,Antioquia,CL 97#72-7,CL 97,72-7,CL,97,72,7,CL 97 #72-7,6.293245400000001,-75.57450490000001
345,345,20009225,El Parquesito,Pedregal,DOCE DE OCTUBRE,Medellin,Antioquia,CL 103C#74A-24,CL 103C,74A-24,CL,103C,74A,24,CL 103C #74A-24,6.3012782,-75.57374
346,346,20009226,La Prosperidad,Castilla,DOCE DE OCTUBRE,Medellin,Antioquia,CL 95#72B-02,CL 95,72B-02,CL,95,72B,02,CL 95 #72B-02,6.2910734,-75.57607440000001
347,347,20009227,Variedad Los Amigo,Castilla,DOCE DE OCTUBRE,Medellin,Antioquia,CL 96#72B-02,CL 96,72B-02,CL,96,72B,02,CL 96 #72B-02,6.292314699999999,-75.5756728
348,348,20009228,La Reja Cafe,Castilla,DOCE DE OCTUBRE,Medellin,Antioquia,CR 72B#96-57,CR 72B,96-57,CR,72B,96,57,CR 72B #96-57,6.292787000000001,-75.5756089
349,349,20009229,Tienda Cristo Rey,Castilla,DOCE DE OCTUBRE,Medellin,Antioquia,CL 97#72A-38,CL 97,72A-38,CL,97,72A,38,CL 97 #72A-38,6.2935989,-75.57510049999998
350,350,20009231,Carrito Azul,Not Specified,DOCE DE OCTUBRE,Medellin,Antioquia,CR 72B#97-91,CR 72B,97-91,CR,72B,97,91,CR 72B #97-91,6.294271699999999,-75.57510400000001
351,351,20009232,Roller,Castilla,DOCE DE OCTUBRE,Medellin,Antioquia,CR 72A#96-42,CR 72A,96-42,CR,72A,96,42,CR 72A #96-42,6.2925783,-75.57506190000001
352,352,20009233,Panadería Catelares,Not Specified,DOCE DE OCTUBRE,Medellin,Antioquia,CR 72B#95-134,CR 72B,95-134,CR,72B,95,134,CR 72B #95-134,6.2920846,-75.57564169999998
353,353,20009234,Mercados Milan,Not Specified,CASTILLA,Medellin,Antioquia,CR 74#109-16,CR 74,109-16,CR,74,109,16,CR 74 #109-16,6.3074216,-75.5701304
354,354,20009235,Tienda Frutas Y Verduras,Tejelo,DOCE DE OCTUBRE,Medellin,Antioquia,CL 106A#70-18,CL 106A,70-18,CL,106A,70,18,CL 106A #70-18,6.304562199999999,-75.56914259999998
355,355,20009236,Detodito,Tejelo,CASTILLA,Medellin,Antioquia,CR 68A#106A-32,CR 68A,106A-32,CR,68A,106A,32,CR 68A #106A-32,6.304710300000001,-75.5677714
356,356,20009237,La Bella,Not Specified,CASTILLA,Medellin,Antioquia,CL 106B#67-45,CL 106B,67-45,CL,106B,67,45,CL 106B #67-45,6.304681299999999,-75.56716519999998
357,357,20009238,Granero Moncho,Tejelo,CASTILLA,Medellin,Antioquia,CL 106A#67-02,CL 106A,67-02,CL,106A,67,02,CL 106A #67-02,6.3043909000000005,-75.56688670000001
358,358,20009239,El Kiosko Del Casique,Not Specified,DOCE DE OCTUBRE,Medellin,Antioquia,CL 101C#82F-03,CL 101C,82F-03,CL,101C,82F,03,CL 101C #82F-03,6.301666699999998,-75.58093640000001
360,360,20009241,Tienda Rosalba,Pedregal,DOCE DE OCTUBRE,Medellin,Antioquia,CL 101C # 82E - 92,CL 101C , 82E - 92,CL,101C , 82E , 92,CL 101C #82E- 92,6.3018665,-75.58083599999998
362,362,20009243,Tienda Mixta Cc,Pedregal,DOCE DE OCTUBRE,Medellin,Antioquia,CL 101AA#81-17,CL 101AA,81-17,CL,101AA,81,17,CL 101AA #81-17,6.3010781,-75.57988069999998
363,363,20009244,Deseables Dj,Pedregal,DOCE DE OCTUBRE,Medellin,Antioquia,CR 78#101BB-22,CR 78,101BB-22,CR,78,101BB,22,CR 78 #101BB-22,6.301961799999999,-75.57827259999998
364,364,20009245,Mi Tiendita,Pedregal,DOCE DE OCTUBRE,Medellin,Antioquia,CR 77A#102-10,CR 77A,102-10,CR,77A,102,10,CR 77A #102-10,6.30162,-75.57772059999998
365,365,20009246,Salsamentaria La Ilucion,Pedregal,DOCE DE OCTUBRE,Medellin,Antioquia,CL 101A#74-74,CL 101A,74-74,CL,101A,74,74,CL 101A #74-74,6.2992517999999995,-75.57566870000001
366,366,20009247,Tienda Las Escalas,Pedregal,DOCE DE OCTUBRE,Medellin,Antioquia,CR 74B#99B-13,CR 74B,99B-13,CR,74B,99B,13,CR 74B #99B-13,6.2977015,-75.57682290000001
367,367,20009248,Tienda Jm,Pedregal,DOCE DE OCTUBRE,Medellin,Antioquia,CL 99B#74A-09,CL 99B,74A-09,CL,99B,74A,09,CL 99B #74A-09,6.297625999999998,-75.5766261
368,368,20009249,Tienda Elkin,Doce De Octubre,DOCE DE OCTUBRE,Medellin,Antioquia,CR 82E # 100G - 13,CR 82E , 100G - 13,CR,82E , 100G , 13,CR 82E #100G- 13,6.3003502000000005,-75.58022740000001
369,369,20009250,Tienda Carmen,Pedregal,DOCE DE OCTUBRE,Medellin,Antioquia,CL 101B#82E-70,CL 101B,82E-70,CL,101B,82E,70,CL 101B #82E-70,6.3015669,-75.5806334
370,370,20009251,Granero Mary,Doce De Octubre Nº 1,DOCE DE OCTUBRE,Medellin,Antioquia,CL 101C#77A-37,CL 101C,77A-37,CL,101C,77A,37,CL 101C #77A-37,6.301801999999999,-75.5780298
371,371,20009252,Tienda Sara,Not Specified,CASTILLA,Medellin,Antioquia,CL 108#66-74,CL 108,66-74,CL,108,66,74,CL 108 #66-74,6.3050517,-75.566288
372,372,20009253,Las 3 Jotas,Not Specified,CASTILLA,Medellin,Antioquia,CR 66#110-12,CR 66,110-12,CR,66,110,12,CR 66 #110-12,6.305943099999999,-75.56537990000001
373,373,20009254,Nelly,Not Specified,BUENOS AIRES,Medellin,Antioquia,CR 28#06-127,CR 28,06-127,CR,28,06,127,CR 28 #06-127,6.2266409000000005,-75.55930579999998
374,374,20009255,Carpa Amarilla,Boyacá,CASTILLA,Medellin,Antioquia,CL 109#64D-175,CL 109,64D-175,CL,109,64D,175,CL 109 #64D-175,6.3051447,-75.5661362
375,375,20009256,Tienda Jj,Picachito,DOCE DE OCTUBRE,Medellin,Antioquia,CR 84#101-25,CR 84,101-25,CR,84,101,25,CR 84 #101-25,6.3012099,-75.58294659999999
377,377,20009258,La Ventana De Wilson,Castilla,CASTILLA,Medellin,Antioquia,CR 71#98-115,CR 71,98-115,CR,71,98,115,CR 71 #98-115,6.2953113,-75.5730361
378,378,20009259,Alberto,Pedregal,DOCE DE OCTUBRE,Medellin,Antioquia,CL 100B#74-72,CL 100B,74-72,CL,100B,74,72,CL 100B #74-72,6.2985951999999985,-75.57606179999998
380,380,20009261,Tienda Gerardo,Pedregal,DOCE DE OCTUBRE,Medellin,Antioquia,CR 74#99B-21,CR 74,99B-21,CR,74,99B,21,CR 74 #99B-21,6.2975195,-75.57606690000001
381,381,20009262,La Super Esquina,Not Specified,CASTILLA,Medellin,Antioquia,CR 71#98-127,CR 71,98-127,CR,71,98,127,CR 71 #98-127,6.2954029,-75.5730052
384,384,20009266,Mercados Convitar,Not Specified,DOCE DE OCTUBRE,Medellin,Antioquia,CR 72#97-65,CR 72,97-65,CR,72,97,65,CR 72 #97-65,6.293767400000001,-75.57431849999998
386,386,20009268,Cosechas De Oriente,Not Specified,BELEN,Medellin,Antioquia,CR 65#109A-16,CR 65,109A-16,CR,65,109A,16,CR 65 #109A-16,6.2386957,-75.583139
388,388,20009270,Calidad Y Punto,Castilla,CASTILLA,Medellin,Antioquia,CR 71#99-88,CR 71,99-88,CR,71,99,88,CR 71 #99-88,6.2962921,-75.57249540000001
390,390,20009272,Distribuidora Luz,Pedregal,DOCE DE OCTUBRE,Medellin,Antioquia,CL 101#73A-51,CL 101,73A-51,CL,101,73A,51,CL 101 #73A-51,6.298031,-75.57494969999998
391,391,20009274,El Ahorrador,Not Specified,CASTILLA,Medellin,Antioquia,CL 110#65-04,CL 110,65-04,CL,110,65,04,CL 110 #65-04,6.305572799999998,-75.5645261
392,392,20009275,Trianjuay,Not Specified,SANTA CRUZ,Medellin,Antioquia,CL 110#64D-137,CL 110,64D-137,CL,110,64D,137,CL 110 #64D-137,6.3009580000000005,-75.55345899999998
394,394,20009277,La Ilusión,Castilla,DOCE DE OCTUBRE,Medellin,Antioquia,CL 95#72-40,CL 95,72-40,CL,95,72,40,CL 95 #72-40,6.2909526,-75.57559640000001
396,396,20010948,Donde Rey,Pedregal,DOCE DE OCTUBRE,Medellin,Antioquia,CL 103D#74A-48,CL 103D,74A-48,CL,103D,74A,48,CL 103D #74A-48,6.3017642999999985,-75.5737098
398,398,20010952,La Mano De Dios,Pedregal,DOCE DE OCTUBRE,Medellin,Antioquia,CL 101A#74B-100,CL 101A,74B-100,CL,101A,74B,100,CL 101A #74B-100,6.2998413,-75.5766166
404,404,20010958,Minimarket Mo,La Sierra,VILLA HERMOSA,Medellin,Antioquia,CR 5#55F-48,CR 5,55F-48,CR,5,55F,48,CR 5 #55F-48,6.236133400000001,-75.5303986
407,407,20010975,Granero El Ritmo,Loreto,BUENOS AIRES,Medellin,Antioquia,CR 31##30A-27,CR 31,#30A-27,CR,31,#30A,27,CR 31 ##30A-27,6.2392278,-75.5546365
409,409,20010978,Tienda Mixta Las Gemelas,Las Brisas,CASTILLA,Medellin,Antioquia,CL 113B#64BB-36,CL 113B,64BB-36,CL,113B,64BB,36,CL 113B #64BB-36,6.308942,-75.56089200000001
412,412,20010983,Mercados La 97,Doce De Octubre N 1,DOCE DE OCTUBRE,Medellin,Antioquia,CR 81#97AA-6,CR 81,97AA-6,CR,81,97AA,6,CR 81 #97AA-6,6.2967112,-75.5825547
413,413,20010985,El Plan,Doce De Octubre 1,DOCE DE OCTUBRE,Medellin,Antioquia,CL 94C # 83D-15,CL 94C , 83D-15,CL,94C , 83D,15,CL 94C #83D-15,6.3040490999999985,-75.5777583
414,414,20010986,Tienda Singapur,Not Specified,SAN ANTONIO DE PRADO,Medellin,Antioquia,CR 58#43SUR-139,CR 58,43SUR-139,CR,58,43SUR,139,CR 58 #43SUR-139,6.184209300000001,-75.65957209999999
416,416,20010997,Distribuidora El Torito,Picachito,DOCE DE OCTUBRE,Medellin,Antioquia,CR 83#102B-12,CR 83,102B-12,CR,83,102B,12,CR 83 #102B-12,6.304375599999998,-75.5819259
417,417,20011004,Minimercado Los Cossios,Barrio Pablo Escobar,EL POBLADO,Medellin,Antioquia,CL 38A#26 EG-23,CL 38A,26 EG-23,CL,38A,26 EG,23,CL 38A #26EG-23,6.2103788,-75.5581876
420,420,20011010,La Lechuga,Villatina,VILLA HERMOSA,Medellin,Antioquia,CL 56A#14-11,CL 56A,14-11,CL,56A,14,11,CL 56A #14-11,6.244971500000001,-75.54575729999998
421,421,20011011,Crsmi,Not Specified,DOCE DE OCTUBRE,Medellin,Antioquia,CL 97B#84-60,CL 97B,84-60,CL,97B,84,60,CL 97B #84-60,6.298486599999999,-75.58438269999998
423,423,20011027,La Buena Suerte,Santander,DOCE DE OCTUBRE,Medellin,Antioquia,CR 78B#107B-13,CR 78B,107B-13,CR,78B,107B,13,CR 78B #107B-13,6.3078772,-75.57527189999998
424,424,20011028,Tienda La Cancha,Santander,DOCE DE OCTUBRE,Medellin,Antioquia,CR 78B # 107A - 26,CR 78B , 107A - 26,CR,78B , 107A , 26,CR 78B #107A- 26,6.307569600000001,-75.5753009
426,426,20011042,Tienda El Grosero,Barrios De Jesus,BUENOS AIRES,Medellin,Antioquia,CL 47#2BB-163,CL 47,2BB-163,CL,47,2BB,163,CL 47 #2BB-163,6.228028299999999,-75.5330014
428,428,20011054,Ventana Azul,Santander,DOCE DE OCTUBRE,Medellin,Antioquia,CR 80#112-19,CR 80,112-19,CR,80,112,19,CR 80 #112-19,6.310002,-75.57613409999998
429,429,20011055,La Bendición De Jehová,Santander,DOCE DE OCTUBRE,Medellin,Antioquia,CL 117#78D-19,CL 117,78D-19,CL,117,78D,19,CL 117 #78D-19,6.3105088,-75.5754963
430,430,20011056,Fruver La 78,Santander,DOCE DE OCTUBRE,Medellin,Antioquia,CR 78C#117-08,CR 78C,117-08,CR,78C,117,08,CR 78C #117-08,6.3105387,-75.57499909999999
431,431,20011058,Tienda Stefania,Santander,DOCE DE OCTUBRE,Medellin,Antioquia,CR 77E#115-10,CR 77E,115-10,CR,77E,115,10,CR 77E #115-10,6.3097233,-75.5744608
435,435,20011081,Tienda Nn,Doce De Octubre N 2,DOCE DE OCTUBRE,Medellin,Antioquia,CL 98#84-22,CL 98,84-22,CL,98,84,22,CL 98 #84-22,6.298577499999999,-75.58420079999998
436,436,20011093,La Terminal De La Sierra,La Sierra,SANTA ELENA,Medellin,Antioquia,CL 56B#8ESTE-17,CL 56B,8ESTE-17,CL,56B,8ESTE,17,CL 56B #8ESTE-17,6.2355836,-75.5259475
440,440,20011106,Él Filo,La Sierra,VILLA HERMOSA,Medellin,Antioquia,CL 55H#3ESTE-54,CL 55H,3ESTE-54,CL,55H,3ESTE,54,CL 55H #3ESTE-54,6.2349608,-75.5281372
446,446,20011129,Kiosko La 59,Not Specified,LAURELES,Medellin,Antioquia,CRV 43#12-76,CRV 43,12-76,CRV,43,12,76,CRV 43 #12-76,6.249435099999999,-75.6022438
447,447,20011130,Piedras Verdes,Picachito,DOCE DE OCTUBRE,Medellin,Antioquia,CR 81#97A-43,CR 81,97A-43,CR,81,97A,43,CR 81 #97A-43,6.296723,-75.5823113
452,452,20009279,Tienda Refrescante Oscar,Pedregal,DOCE DE OCTUBRE,Medellin,Antioquia,TV 103B#74-82,TV 103B,74-82,TV,103B,74,82,TV 103B #74-82,6.3008804000000005,-75.57378809999999
453,453,20009280,Mercados La 72,Castilla,CASTILLA,Medellin,Antioquia,CR 72#96-30,CR 72,96-30,CR,72,96,30,CR 72 #96-30,6.2923516,-75.574646
455,455,20009282,Punto Azul,Pedregal,DOCE DE OCTUBRE,Medellin,Antioquia,CL 103C#74A-06,CL 103C,74A-06,CL,103C,74A,06,CL 103C #74A-06,6.3012112999999985,-75.5736004
456,456,20009283,Tienda Andrea,Castilla,CASTILLA,Medellin,Antioquia,CR 71#99-64,CR 71,99-64,CR,71,99,64,CR 71 #99-64,6.2960992,-75.5725561
457,457,20009284,Las Cartagena,Castilla,CASTILLA,Medellin,Antioquia,CR 70#99-39,CR 70,99-39,CR,70,99,39,CR 70 #99-39,6.2958637,-75.5721902
458,458,20009286,Mercados Nilo,Boyacá,CASTILLA,Medellin,Antioquia,CL 109#65-04,CL 109,65-04,CL,109,65,04,CL 109 #65-04,6.3050393,-75.5651215
460,460,20009288,Mariodi,Boyacá,CASTILLA,Medellin,Antioquia,CR 67#106B-06,CR 67,106B-06,CR,67,106B,06,CR 67 #106B-06,6.3039023,-75.56671349999998
462,462,20009291,Endejhon,Pedregal,DOCE DE OCTUBRE,Medellin,Antioquia,CL 101#72A-67,CL 101,72A-67,CL,101,72A,67,CL 101 #72A-67,6.297559499999998,-75.5741882
463,463,20009292,Mickey Mouse,Not Specified,DOCE DE OCTUBRE,Medellin,Antioquia,CL 101B#74-89,CL 101B,74-89,CL,101B,74,89,CL 101B #74-89,6.2995163,-75.5757017
464,464,20009293,Ventana Yuli,Castilla,CASTILLA,Medellin,Antioquia,CR 71A#99-4,CR 71A,99-4,CR,71A,99,4,CR 71A #99-4,6.2958207,-75.5730978
465,465,20009294,La Ventanita De Flor,Castilla,DOCE DE OCTUBRE,Medellin,Antioquia,CL 94 # 72-38,CL 94 , 72-38,CL,94 , 72,38,CL 94 #72-38,6.2897289,-75.57604239999998
466,466,20009295,Tienda Peeez,Not Specified,CASTILLA,Medellin,Antioquia,CL 98#71-61,CL 98,71-61,CL,98,71,61,CL 98 #71-61,6.294531,-75.573892
467,467,20009296,El Manguey,Castilla,CASTILLA,Medellin,Antioquia,CL 98#70-25,CL 98,70-25,CL,98,70,25,CL 98 #70-25,6.294176999999999,-75.57290649999999
468,468,20009298,Salsamentaria Rafael,Pedregal,DOCE DE OCTUBRE,Medellin,Antioquia,CL 102#74A-108,CL 102,74A-108,CL,102,74A,108,CL 102 #74A-108,6.300585799999999,-75.5752735
469,469,20009299,Tienda La Mona,Picachito,DOCE DE OCTUBRE,Medellin,Antioquia,CR 86#98CC-14,CR 86,98CC-14,CR,86,98CC,14,CR 86 #98CC-14,6.3006945,-75.5849203
470,470,20009301,Él Reguero,Not Specified,CASTILLA,Medellin,Antioquia,CL 112B#64D-101,CL 112B,64D-101,CL,112B,64D,101,CL 112B #64D-101,6.307430200000001,-75.56377859999998
471,471,20009302,Kiosco Celin,Not Specified,CASTILLA,Medellin,Antioquia,CR 64DD#110-106,CR 64DD,110-106,CR,64DD,110,106,CR 64DD #110-106,6.306073899999999,-75.56351339999998
472,472,20009303,La Gran Fe  2,Boyacá,CASTILLA,Medellin,Antioquia,CL 111B#65A-81,CL 111B,65A-81,CL,111B,65A,81,CL 111B #65A-81,6.306551799999999,-75.5651396
473,473,20009304,Abarrote J Y S,Boyacá,CASTILLA,Medellin,Antioquia,CR 67#111A-03,CR 67,111A-03,CR,67,111A,03,CR 67 #111A-03,6.3065273,-75.56591970000001
474,474,20009305,La 94,Castilla,CASTILLA,Medellin,Antioquia,CL 94#68A-23,CL 94,68A-23,CL,94,68A,23,CL 94 #68A-23,6.288750800000001,-75.5734707
477,477,20009309,Chacha,Boyacá,CASTILLA,Medellin,Antioquia,CR 67#104B-46,CR 67,104B-46,CR,67,104B,46,CR 67 #104B-46,6.3025443,-75.5669457
478,478,20009310,Tienda Chipurra,Girardot,CASTILLA,Medellin,Antioquia,CR 65#104-05,CR 65,104-05,CR,65,104,05,CR 65 #104-05,6.301533,-75.56633819999998
480,480,20009313,Rejita Negra,Not Specified,CASTILLA,Medellin,Antioquia,CR 64D#106A-15,CR 64D,106A-15,CR,64D,106A,15,CR 64D #106A-15,6.3032930999999985,-75.56505349999998
481,481,20009314,Granero Mo,Not Specified,DOCE DE OCTUBRE,Medellin,Antioquia,CL 105B#71A-156,CL 105B,71A-156,CL,105B,71A,156,CL 105B #71A-156,6.3032528,-75.57060770000001
484,484,20009317,Punto Bueno,Boyacá,CASTILLA,Medellin,Antioquia,CR 64D#104A-21,CR 64D,104A-21,CR,64D,104A,21,CR 64D #104A-21,6.3023776,-75.565787
485,485,20009318,Tienda Miguel Angel,Not Specified,DOCE DE OCTUBRE,Medellin,Antioquia,CL 106A#74-50,CL 106A,74-50,CL,106A,74,50,CL 106A #74-50,6.3044471,-75.57105949999998
486,486,20009319,La Ventanita,Pedregal,CASTILLA,Medellin,Antioquia,CL 106B#74-22,CL 106B,74-22,CL,106B,74,22,CL 106B #74-22,6.3049827,-75.57077260000001
489,489,20009324,Mercalicores Girardot,Not Specified,CASTILLA,Medellin,Antioquia,CR 65#103A-32,CR 65,103A-32,CR,65,103A,32,CR 65 #103A-32,6.2982505999999985,-75.5668953
490,490,20009328,Tienda Pv,Pedregal,DOCE DE OCTUBRE,Medellin,Antioquia,CL 106#70-3,CL 106,70-3,CL,106,70,3,CL 106 #70-3,6.3039345,-75.56894150000001
492,492,20009330,La Ventanita De Sofia,Not Specified,DOCE DE OCTUBRE,Medellin,Antioquia,CL 105F#70-27,CL 105F,70-27,CL,105F,70,27,CL 105F #70-27,6.3034845,-75.5690767
493,493,20009331,La Ventanita De Tata,Girardot,CASTILLA,Medellin,Antioquia,CL 103DD#65-96,CL 103DD,65-96,CL,103DD,65,96,CL 103DD #65-96,6.2991525,-75.5675825
494,494,20009332,Andale,Pedregal,CASTILLA,Medellin,Antioquia,CL 105#71A-94,CL 105,71A-94,CL,105,71A,94,CL 105 #71A-94,6.290015400000001,-75.5750222
495,495,20009333,Tienda Viviana,Not Specified,DOCE DE OCTUBRE,Medellin,Antioquia,CL 105B#71A-50,CL 105B,71A-50,CL,105B,71A,50,CL 105B #71A-50,6.302552400000001,-75.57010269999998
497,497,20009335,Tienda Reja Negra,Pedregal,DOCE DE OCTUBRE,Medellin,Antioquia,CL 104A#70-122,CL 104A,70-122,CL,104A,70,122,CL 104A #70-122,6.3012400999999985,-75.5707863
502,502,20009340,Salsametaria Whipped,Not Specified,CASTILLA,Medellin,Antioquia,CR 64C#104A-58,CR 64C,104A-58,CR,64C,104A,58,CR 64C #104A-58,6.3014342,-75.5639015
503,503,20009341,Tienda Yonni,Boyacá,CASTILLA,Medellin,Antioquia,CL 106A#64D-43,CL 106A,64D-43,CL,106A,64D,43,CL 106A #64D-43,6.304120200000002,-75.5665676
504,504,20009342,Granero La 65,Boyacá,CASTILLA,Medellin,Antioquia,CR 65#103D-11,CR 65,103D-11,CR,65,103D,11,CR 65 #103D-11,6.298321899999999,-75.56703459999999
506,506,20009344,Salsamentaria Jm,San Antonio,SAN ANTONIO DE PRADO,Medellin,Antioquia,CL 48SUR#72-61,CL 48SUR,72-61,CL,48SUR,72,61,CL 48SUR #72-61,6.1782992,-75.651523
507,507,20009345,Zalsamentaria Trujillo,San Antonio,SAN ANTONIO DE PRADO,Medellin,Antioquia,CL 48 SUR#72-112,CL 48 SUR,72-112,CL,48 SUR,72,112,CL 48SUR #72-112,6.1782992,-75.651523
508,508,20009346,Los Gemelos,Pedregal,DOCE DE OCTUBRE,Medellin,Antioquia,CL 106A#74-92,CL 106A,74-92,CL,106A,74,92,CL 106A #74-92,6.3045503,-75.5713344
509,509,20009347,Jy,Not Specified,DOCE DE OCTUBRE,Medellin,Antioquia,CL 106B#74-39,CL 106B,74-39,CL,106B,74,39,CL 106B #74-39,6.3047847,-75.5709136
510,510,20009348,Tienda Nelson Jy,Not Specified,DOCE DE OCTUBRE,Medellin,Antioquia,CL 106#72-74,CL 106,72-74,CL,106,72,74,CL 106 #72-74,6.3041231,-75.5704557
512,512,20009350,Rejita Ligia,Girardot,CASTILLA,Medellin,Antioquia,CL 103FF#65-51,CL 103FF,65-51,CL,103FF,65,51,CL 103FF #65-51,6.300231299999999,-75.5669108
513,513,20009352,Mercados Chipre,Not Specified,CASTILLA,Medellin,Antioquia,CL 103D#66-124,CL 103D,66-124,CL,103D,66,124,CL 103D #66-124,6.2989913999999985,-75.56820929999998
514,514,20009353,Tienda Jairos,Girardot,CASTILLA,Medellin,Antioquia,CL 103D#65-08,CL 103D,65-08,CL,103D,65,08,CL 103D #65-08,6.2983153,-75.56698999999998
516,516,20009355,Variedades Darinel,Not Specified,DOCE DE OCTUBRE,Medellin,Antioquia,CL 105A#75-59,CL 105A,75-59,CL,105A,75,59,CL 105A #75-59,6.3047974,-75.572328
519,519,20011136,Tienda Luisa N2,Quinta Linda,BUENOS AIRES,Medellin,Antioquia,CR 15C#40-83,CR 15C,40-83,CR,15C,40,83,CR 15C #40-83,6.231674399999998,-75.5456888
520,520,20011141,Granero Juanito,Guayabal,GUAYABAL,Medellin,Antioquia,CR 54#9BSUR-11,CR 54,9BSUR-11,CR,54,9BSUR,11,CR 54 #9BSUR-11,6.2254593,-75.5803126
523,523,20011150,Legumbre Las Vegas,Picachito,DOCE DE OCTUBRE,Medellin,Antioquia,CR 81#97A-49,CR 81,97A-49,CR,81,97A,49,CR 81 #97A-49,6.296513,-75.58250240000001
526,526,20011175,Tienda La Abundacia,Not Specified,LA CANDELARIA,Medellin,Antioquia,CL 44#42-17,CL 44,42-17,CL,44,42,17,CL 44 #42-17,6.2421305999999985,-75.564263
527,527,20011181,La Teja Verde,Santander,DOCE DE OCTUBRE,Medellin,Antioquia,CR 80#106A-11,CR 80,106A-11,CR,80,106A,11,CR 80 #106A-11,6.307243700000001,-75.5765991
528,528,20007873,Autoservicio El Exitoso,Bermejal - Los Álamos,ARANJUEZ,Medellin,Antioquia,CL 88B#54B-47,CL 88B,54B-47,CL,88B,54B,47,CL 88B #54B-47,6.2804927,-75.562974
529,529,20009357,Mercado La 74,Not Specified,DOCE DE OCTUBRE,Medellin,Antioquia,CR 74#101B-07,CR 74,101B-07,CR,74,101B,07,CR 74 #101B-07,6.299393299999998,-75.57501580000002
530,530,20009358,La Piedra,Not Specified,DOCE DE OCTUBRE,Medellin,Antioquia,CR 74#105B-18,CR 74,105B-18,CR,74,105B,18,CR 74 #105B-18,6.3033229,-75.5706845
531,531,20011439,Tienda Jj,Bermejal - Los Alamos,ARANJUEZ,Medellin,Antioquia,CL 88A#54B-41,CL 88A,54B-41,CL,88A,54B,41,CL 88A #54B-41,6.281146,-75.56631879999999
532,532,20009360,La Ambrosía,Pedregal,DOCE DE OCTUBRE,Medellin,Antioquia,CR 70#104A-21,CR 70,104A-21,CR,70,104A,21,CR 70 #104A-21,6.3008636,-75.5699863
533,533,20009363,Granero Eiber,Castilla,CASTILLA,Medellin,Antioquia,CR 69#98-8,CR 69,98-8,CR,69,98,8,CR 69 #98-8,6.2940033999999985,-75.57187490000001
535,535,20011188,Tienda Escobar,Barrio Pablo Escobar,LA CANDELARIA,Medellin,Antioquia,CL 38A#26C-06,CL 38A,26C-06,CL,38A,26C,06,CL 38A #26C-06,6.2476376,-75.56581530000003
542,542,20009359,La Gran Esquina,Not Specified,DOCE DE OCTUBRE,Medellin,Antioquia,CL 105 B#71A-07,CL 105 B,71A-07,CL,105 B,71A,07,CL 105B #71A-07,6.3021986,-75.5700098
544,544,20011208,Mirador N 2,Barrio Pablo Escobar,EL POBLADO,Medellin,Antioquia,CL 38A#26DD-40,CL 38A,26DD-40,CL,38A,26DD,40,CL 38A #26DD-40,6.2103788,-75.5581876
558,558,20011252,El Triangulo,Doce De Octubre N 2,DOCE DE OCTUBRE,Medellin,Antioquia,CL 98CC#80-37,CL 98CC,80-37,CL,98CC,80,37,CL 98CC #80-37,6.2981028,-75.5808703
563,563,20011291,La Cañada,Villa Lilliam,VILLA HERMOSA,Medellin,Antioquia,CR 8A#57A-41,CR 8A,57A-41,CR,8A,57A,41,CR 8A #57A-41,6.2367517,-75.53349539999998
567,567,20009364,Las 4 Y,Castilla,Comuna 5,Medellin,Not Specified,CR 68 # 99  05,CR 68 , 99  05,CR,68 , 99  05,,CR 68 #9905,,
568,568,20009365,Tienda Clara,Castilla,CASTILLA,Medellin,Antioquia,CR 68#94-5,CR 68,94-5,CR,68,94,5,CR 68 #94-5,6.2887356,-75.5729392
569,569,20009366,Granero Las Juanas,Castilla,CASTILLA,Medellin,Antioquia,CR 66#93-119,CR 66,93-119,CR,66,93,119,CR 66 #93-119,6.2878859999999985,-75.5717026
570,570,20009367,La Villa,Castilla,CASTILLA,Medellin,Antioquia,CR 66#96-41,CR 66,96-41,CR,66,96,41,CR 66 #96-41,6.2910065999999984,-75.5707123
571,571,20009368,La Rosa,Not Specified,CASTILLA,Medellin,Antioquia,CL 97#96-129,CL 97,96-129,CL,97,96,129,CL 97 #96-129,6.2931691,-75.57435840000001
572,572,20009369,Las 3 Mellizas,Not Specified,CASTILLA,Medellin,Antioquia,CL 98#67-50,CL 98,67-50,CL,98,67,50,CL 98 #67-50,6.293742,-75.57096039999998
573,573,20009370,Tienda Gm,San Antonio De Prado,SAN ANTONIO DE PRADO,Medellin,Antioquia,CL 53ASUR#64A-05,CL 53ASUR,64A-05,CL,53ASUR,64A,05,CL 53ASUR #64A-05,6.184306200000001,-75.65617990000001
579,579,20009375,Carpa Azul,San Antonio De Prado,SAN ANTONIO DE PRADO,Medellin,Antioquia,CL 40A SUR#70-40,CL 40A SUR,70-40,CL,40A SUR,70,40,CL 40ASUR #70-40,6.1853954999999985,-75.6527713
580,580,20009378,Vero Toro,Not Specified,LA AMERICA,Medellin,Antioquia,CL 42D#11C-106,CL 42D,11C-106,CL,42D,11C,106,CL 42D #11C-106,6.249163999999999,-75.60367099999998
581,581,20009379,Ecotienda,Not Specified,CASTILLA,Medellin,Antioquia,CR 72#99-30,CR 72,99-30,CR,72,99,30,CR 72 #99-30,6.296053,-75.57332989999998
582,582,20009382,Alisados Y Tratamientos Dv,Not Specified,BUENOS AIRES,Medellin,Antioquia,CL 45#10A-73,CL 45,10A-73,CL,45,10A,73,CL 45 #10A-73,6.2299175999999985,-75.54314939999998
583,583,20009383,Tienda Jugos Y Buñuelos,Girardot,CASTILLA,Medellin,Antioquia,CR 65#103-48,CR 65,103-48,CR,65,103,48,CR 65 #103-48,6.2977419,-75.56705009999999
584,584,20009384,Él Enfarrado,Girardot,CASTILLA,Medellin,Antioquia,CR 65#103-19,CR 65,103-19,CR,65,103,19,CR 65 #103-19,6.297295200000001,-75.5673438
585,585,20009386,Tienda Lupe,Girardot,CASTILLA,Medellin,Antioquia,CR 70A # 91-16,CR 70A , 91-16,CR,70A , 91,16,CR 70A #91-16,6.283189000000001,-75.57576390000001
586,586,20009387,La Gran Manzana De Nico,Girardot,CASTILLA,Medellin,Antioquia,CR 67#103C-05,CR 67,103C-05,CR,67,103C,05,CR 67 #103C-05,6.2983943,-75.5687324
587,587,20009388,Legumbreria Mixta La Y,Doce De Octubre Nº 1,DOCE DE OCTUBRE,Medellin,Antioquia,CL 104#76-14,CL 104,76-14,CL,104,76,14,CL 104 #76-14,6.3027583,-75.57444
589,589,20009390,Fully H D 2,Not Specified,DOCE DE OCTUBRE,Medellin,Antioquia,CR 76#104-27,CR 76,104-27,CR,76,104,27,CR 76 #104-27,6.3027359,-75.57427270000001
590,590,20009391,Full Hd 1,Pedregal,DOCE DE OCTUBRE,Medellin,Antioquia,CR 76#104A-10,CR 76,104A-10,CR,76,104A,10,CR 76 #104A-10,6.3032148,-75.57417350000001
591,591,20009392,La Ventanita Cafe,Girardot,CASTILLA,Medellin,Antioquia,CL 103D#68A-55,CL 103D,68A-55,CL,103D,68A,55,CL 103D #68A-55,6.299624700000001,-75.56972499999998
592,592,20009393,El Progreso,Pedregal,DOCE DE OCTUBRE,Medellin,Antioquia,CL 104#76-66,CL 104,76-66,CL,104,76,66,CL 104 #76-66,6.3029427,-75.5747705
593,593,20009394,Él Plan,Girardot,CASTILLA,Medellin,Antioquia,CL 103C#67-108,CL 103C,67-108,CL,103C,67,108,CL 103C #67-108,6.2990324,-75.56937940000002
596,596,20009400,Chucho,Pedregal,DOCE DE OCTUBRE,Medellin,Antioquia,TV 103A#74A-77,TV 103A,74A-77,TV,103A,74A,77,TV 103A #74A-77,6.3015457999999995,-75.57457840000001
597,597,20009401,Pilón De Magola,Pedregal,DOCE DE OCTUBRE,Medellin,Antioquia,CL 102B#74A-64,CL 102B,74A-64,CL,102B,74A,64,CL 102B #74A-64,6.3008671,-75.57490690000002
599,599,20009404,La Bendición,Girardot,CASTILLA,Medellin,Antioquia,CR 66#101A-25,CR 66,101A-25,CR,66,101A,25,CR 66 #101A-25,6.2965007,-75.5684492
600,600,20009406,Abarrotes Luisa,Pedregal,DOCE DE OCTUBRE,Medellin,Antioquia,CR 74#101C-08,CR 74,101C-08,CR,74,101C,08,CR 74 #101C-08,6.2995085,-75.57428240000002
602,602,20009413,Tienda J Y L,Girardot,CASTILLA,Medellin,Antioquia,CL 103#66-72,CL 103,66-72,CL,103,66,72,CL 103 #66-72,6.2979148999999985,-75.56833470000001
605,605,20011337,Tati,Not Specified,SAN ANTONIO DE PRADO,Medellin,Antioquia,CR 62#105-39,CR 62,105-39,CR,62,105,39,CR 62 #105-39,6.1755203000000005,-75.64330600000001
607,607,20007742,Autoservicio Los Álamos,Not Specified,ARANJUEZ,Medellin,Antioquia,CR 52C#85-105,CR 52C,85-105,CR,52C,85,105,CR 52C #85-105,6.279250999999999,-75.5648449
611,611,20011370,Los Rios,Santander,DOCE DE OCTUBRE,Medellin,Antioquia,CR 81#107B-08,CR 81,107B-08,CR,81,107B,08,CR 81 #107B-08,6.308543900000001,-75.577215
612,612,20011372,Granero El Milagroso,Bosques De San Pablo,ROBLEDO,Medellin,Antioquia,CR 71A # 78A-04,CR 71A , 78A-04,CR,71A , 78A,04,CR 71A #78A-04,6.276152799999998,-75.58079120000001
613,613,20011388,Tienda Sym,Barrio Pablo Escobar,BUENOS AIRES,Medellin,Antioquia,CR 26EE#37-37,CR 26EE,37-37,CR,26EE,37,37,CR 26EE #37-37,6.2297492,-75.55533890000001
616,616,20011437,Manuela,Pedregal,Comuna 6,Medellin,Not Specified,CL 103 C # 74  36,CL 103 C , 74  36,CL,103 C , 74  36,,CL 103C #7436,,
618,618,20011454,Variedades Jama,Doce De Octubre 1,Comuna 6,Medellin,Not Specified,CL 104 DD # 82E  25,CL 104 DD , 82E  25,CL,104 DD , 82E  25,,CL 104DD #82E25,,
620,620,20011517,Tienda Flor,Santander,DOCE DE OCTUBRE,Medellin,Antioquia,CR 76 B # 108-60,CR 76 B , 108-60,CR,76 B , 108,60,CR 76B #108-60,6.3075765,-75.57241579999999
621,621,20011520,La Cancha De Los Mosquitos,La Sierra,LA CANDELARIA,Medellin,Antioquia,CL 53 # 3A - 97,CL 53 , 3A - 97,CL,53 , 3A , 97,CL 53 #3A- 97,6.2487743999999985,-75.5601325
622,622,20011521,La Esquina,Santander,DOCE DE OCTUBRE,Medellin,Antioquia,CR 77E#114-91,CR 77E,114-91,CR,77E,114,91,CR 77E #114-91,6.3095398000000005,-75.5744332
625,625,20011528,Tienda Everes,Picachito,DOCE DE OCTUBRE,Medellin,Antioquia,CR 86B#98BB-18,CR 86B,98BB-18,CR,86B,98BB,18,CR 86B #98BB-18,6.3006483,-75.5856292
628,628,20014855,Granero El Despertar,Not Specified,POPULAR,Medellin,Antioquia,CR 23#99A-58,CR 23,99A-58,CR,23,99A,58,CR 23 #99A-58,6.2877564,-75.5380703
633,633,20011542,Tienda Pady,El Chagualo,LA CANDELARIA,Medellin,Antioquia,CL 66A#55A-51,CL 66A,55A-51,CL,66A,55A,51,CL 66A #55A-51,6.2640895,-75.56939320000001
634,634,20011543,Donde Omar,Barrio Pablo Escobar,EL POBLADO,Medellin,Antioquia,CL 38A#26DD-18,CL 38A,26DD-18,CL,38A,26DD,18,CL 38A #26DD-18,6.2103788,-75.5581876
635,635,20011544,Mini Mercado Los Primos,Barrio Pablo Escobar,LA CANDELARIA,Medellin,Antioquia,CL 38B#26E-140,CL 38B,26E-140,CL,38B,26E,140,CL 38B #26E-140,6.2476376,-75.56581530000003
636,636,20011546,Tienda Mixta Gustavo,Pedregal,DOCE DE OCTUBRE,Medellin,Antioquia,CR 74#104F-05,CR 74,104F-05,CR,74,104F,05,CR 74 #104F-05,6.302715,-75.57194870000001
637,637,20011547,Maloka,Barrio Pablo Escobar,EL POBLADO,Medellin,Antioquia,CL 38#26EH-7,CL 38,26EH-7,CL,38,26EH,7,CL 38 #26EH-7,6.2103788,-75.5581876
638,638,20011549,Restaurante Jholian,Pedregal,DOCE DE OCTUBRE,Medellin,Antioquia,CL 101#74-10,CL 101,74-10,CL,101,74,10,CL 101 #74-10,6.298635900000001,-75.5754613
640,640,20011585,El Comienzo,Villa Hermosa,VILLA HERMOSA,Medellin,Antioquia,CR 36#66-G08,CR 36,66-G08,CR,36,66,G08,CR 36 #66-G08,6.25819,-75.552803
641,641,20011590,Granero La Econimia,Villa Hermosa,MANRIQUE,Medellin,Antioquia,CR 36#69-16,CR 36,69-16,CR,36,69,16,CR 36 #69-16,6.2636690999999995,-75.5478181
642,642,20011591,Tienda Gaby,San Antonio,LAURELES,Medellin,Antioquia,CR 63 SUR # 31 - 143,CR 63 SUR , 31 - 143,CR,63 SUR , 31 , 143,CR 63SUR #31- 143,6.2534627999999985,-75.57879859999998
643,643,20011609,Valconcito Celeste,Villa Hermosa,MANRIQUE,Medellin,Antioquia,CR 37#67-84,CR 37,67-84,CR,37,67,84,CR 37 #67-84,6.262563500000001,-75.54869889999998
645,645,20009415,La Ventana,Girardot,CASTILLA,Medellin,Antioquia,CL 102#65-58,CL 102,65-58,CL,102,65,58,CL 102 #65-58,6.2971379,-75.56788499999998
647,647,20009417,Ventana Jara,Pedregal,DOCE DE OCTUBRE,Medellin,Antioquia,CL 102B#72-48,CL 102B,72-48,CL,102B,72,48,CL 102B #72-48,6.2997024,-75.5725518
649,649,20009418,Tienda Laura,Girardot,CASTILLA,Medellin,Antioquia,CR 67#101-53,CR 67,101-53,CR,67,101,53,CR 67 #101-53,6.2967803,-75.5696379
651,651,20009421,Granero La 103,Pedregal,DOCE DE OCTUBRE,Medellin,Antioquia,CR 74#103C-4,CR 74,103C-4,CR,74,103C,4,CR 74 #103C-4,6.3006593,-75.5727366
652,652,20009422,La Hortaliza,Pedregal,DOCE DE OCTUBRE,Medellin,Antioquia,CL 103D#71-95,CL 103D,71-95,CL,103D,71,95,CL 103D #71-95,6.3003313,-75.5714167
654,654,20009424,Tienda Tyj,Belalcazar,CASTILLA,Medellin,Antioquia,CL 103E#63E-40,CL 103E,63E-40,CL,103E,63E,40,CL 103E #63E-40,6.2973211,-75.5647694
655,655,20009425,Granero Sanchez,San Antonio,Comuna 1,Medellin,TX,CL 48D SUR # 56 - 07,CL 48D SUR , 56 - 07,CL,48D SUR , 56 , 07,CL 48DSUR #56- 07,29.4241219,-98.4936282
656,656,20011615,Holanda,Robledo,DOCE DE OCTUBRE,Medellin,Antioquia,CL 94D#83D-40,CL 94D,83D-40,CL,94D,83D,40,CL 94D #83D-40,6.2956547,-75.585498
657,657,20009426,Lasmi,San Antonio De Prado,Comuna 1,Medellin,Antioquia,CR 56#48A SUR-73,CR 56,48A SUR-73,CR,56,48A SUR,73,CR 56 #48ASUR-73,6.1763141,-75.61260940000001
659,659,20009428,Ventana Dora,Pedregal,DOCE DE OCTUBRE,Medellin,Antioquia,CL 103D#74-44,CL 103D,74-44,CL,103D,74,44,CL 103D #74-44,6.3012668,-75.572771
661,661,20009430,Tienda De Memo,San Antonio,LA CANDELARIA,Medellin,Antioquia,CR 58 # 48 SUR 15,CR 58 , 48 SUR 15,CR,58 , 48 SUR 15,,CR 58 #48SUR15,6.2476376,-75.56581530000003
662,662,20009431,El Palo De Mango,Belalcazar,CASTILLA,Medellin,Antioquia,CL 103D#63C-53,CL 103D,63C-53,CL,103D,63C,53,CL 103D #63C-53,6.296267599999998,-75.56459559999998
663,663,20009432,Granero Luciana,Girardot,CASTILLA,Medellin,Antioquia,CR 69#99-54,CR 69,99-54,CR,69,99,54,CR 69 #99-54,6.2955782,-75.5711917
664,664,20009433,Salsamentaria Él Ovejo,Castilla,CASTILLA,Medellin,Antioquia,CR 70#99-77,CR 70,99-77,CR,70,99,77,CR 70 #99-77,6.2960965999999985,-75.5721205
665,665,20009437,Tienda Enma,Not Specified,CASTILLA,Medellin,Antioquia,CR 67#101-32,CR 67,101-32,CR,67,101,32,CR 67 #101-32,6.2965385000000005,-75.56948670000001
666,666,20009438,La Nueva Era,Girardot,CASTILLA,Medellin,Antioquia,CR 66B#101-35,CR 66B,101-35,CR,66B,101,35,CR 66B #101-35,6.2965290000000005,-75.569339
667,667,20009439,Granero Juladi,Girardot,CASTILLA,Medellin,Antioquia,CL 103D#66-53,CL 103D,66-53,CL,103D,66,53,CL 103D #66-53,6.298503299999999,-75.56781389999998
668,668,20009440,Ventana Blanca,Not Specified,CASTILLA,Medellin,Antioquia,CR 69#100-50,CR 69,100-50,CR,69,100,50,CR 69 #100-50,6.296247900000001,-75.5708581
670,670,20009442,La Ventanitade La 69,Castilla,CASTILLA,Medellin,Antioquia,CR 69#93-64,CR 69,93-64,CR,69,93,64,CR 69 #93-64,6.288096400000001,-75.573712
671,671,20009443,Piramide De Las Flores,Girardot,CASTILLA,Medellin,Antioquia,CL 102#66B-05,CL 102,66B-05,CL,102,66B,05,CL 102 #66B-05,6.2971544,-75.5691334
672,672,20009444,Tienda Consuelo,Pedregal,DOCE DE OCTUBRE,Medellin,Antioquia,CL 104#76-51,CL 104,76-51,CL,104,76,51,CL 104 #76-51,6.3026611,-75.57474739999998
673,673,20009445,Tienda El Garaje,Not Specified,CASTILLA,Medellin,Antioquia,CR 69#94-52,CR 69,94-52,CR,69,94,52,CR 69 #94-52,6.2891901,-75.57332530000001
674,674,20009446,Nuestra Tierra,Pedregal,Comuna 6,Medellin,Not Specified,CR 74 # 102 B  47,CR 74 , 102 B  47,CR,74 , 102 B  47,,CR 74 #102B47,,
675,675,20009447,Tienda Natalia,Girardot,CASTILLA,Medellin,Antioquia,CL 103C#66-97,CL 103C,66-97,CL,103C,66,97,CL 103C #66-97,6.298153399999999,-75.5683358
676,676,20009448,Ventanita Zapata,Pedregal,DOCE DE OCTUBRE,Medellin,Antioquia,CL 102B#72-110,CL 102B,72-110,CL,102B,72,110,CL 102B #72-110,6.2999098,-75.57296339999998
677,677,20009449,Legumbreria Y Tienda,Girardot,CASTILLA,Medellin,Antioquia,CR 67#103C-19,CR 67,103C-19,CR,67,103C,19,CR 67 #103C-19,6.2985650999999985,-75.5687915
678,678,20009450,El Chuzo De Ángela,Castilla,CASTILLA,Medellin,Antioquia,CR 69#96-99,CR 69,96-99,CR,69,96,99,CR 69 #96-99,6.2921437000000005,-75.57260050000001
680,680,20009452,Donde Make,Not Specified,CASTILLA,Medellin,Antioquia,CR 69#99-03,CR 69,99-03,CR,69,99,03,CR 69 #99-03,6.2952995000000005,-75.57153559999998
681,681,20009453,La Estrella,Pedregal,DOCE DE OCTUBRE,Medellin,Antioquia,CR 74#102-27,CR 74,102-27,CR,74,102,27,CR 74 #102-27,6.299935199999998,-75.57398559999999
682,682,20009455,Reja Gris,Not Specified,CASTILLA,Medellin,Antioquia,CL 103EE#65-66,CL 103EE,65-66,CL,103EE,65,66,CL 103EE #65-66,6.300033999999999,-75.56716870000001
683,683,20009456,Mixto Juan,Castilla,CASTILLA,Medellin,Antioquia,CR 66#96-02,CR 66,96-02,CR,66,96,02,CR 66 #96-02,6.2906564000000005,-75.5705955
684,684,20009457,El Buen Precio De La 65,Castilla,CASTILLA,Medellin,Antioquia,CR 66#96-53,CR 66,96-53,CR,66,96,53,CR 66 #96-53,6.2910987999999985,-75.57068269999998
685,685,20009458,Mercados El Tigre,Not Specified,CASTILLA,Medellin,Antioquia,CL 98#67-08,CL 98,67-08,CL,98,67,08,CL 98 #67-08,6.293567400000001,-75.5706338
686,686,20009459,La Carpita,Castilla,CASTILLA,Medellin,Antioquia,CR 63D#103D-35,CR 63D,103D-35,CR,63D,103D,35,CR 63D #103D-35,6.2964345999999995,-75.56390929999998
687,687,20009461,Granero Oti,Castilla,CASTILLA,Medellin,Antioquia,CL 64AA#103D-25,CL 64AA,103D-25,CL,64AA,103D,25,CL 64AA #103D-25,6.2975458,-75.5660736
688,688,20009462,Granero Los 3 Pasos,Castilla,CASTILLA,Medellin,Antioquia,CR 63E#103D-77,CR 63E,103D-77,CR,63E,103D,77,CR 63E #103D-77,6.2967236999999985,-75.56454339999998
689,689,20009463,Granero Belarcazar,Belalcazar,CASTILLA,Medellin,Antioquia,CL 103#63E-36,CL 103,63E-36,CL,103,63E,36,CL 103 #63E-36,6.295827099999999,-75.5645725
693,693,20009467,Granero Michel,Not Specified,CASTILLA,Medellin,Antioquia,CR 66#92F-62,CR 66,92F-62,CR,66,92F,62,CR 66 #92F-62,6.2865889,-75.5718715
694,694,20009468,Carpa Azul,Not Specified,CASTILLA,Medellin,Antioquia,CR 66#95-124,CR 66,95-124,CR,66,95,124,CR 66 #95-124,6.2903224999999985,-75.5706625
695,695,20009469,La Reja Blanca,Not Specified,CASTILLA,Medellin,Antioquia,CL 103#64-10,CL 103,64-10,CL,103,64,10,CL 103 #64-10,6.2964943999999985,-75.565857
696,696,20009471,Super Mercado Mixto,Belalcazar,CASTILLA,Medellin,Antioquia,CR 64A#103-08,CR 64A,103-08,CR,64A,103,08,CR 64A #103-08,6.2972923,-75.5655068
697,697,20009472,Granero Luz,Belalcazar,CASTILLA,Medellin,Antioquia,CR 64A#103D-55,CR 64A,103D-55,CR,64A,103D,55,CR 64A #103D-55,6.2972923,-75.5655068
698,698,20009473,Autoservicio Belarcazar,Not Specified,CASTILLA,Medellin,Antioquia,CL 103#63E-107,CL 103,63E-107,CL,103,63E,107,CL 103 #63E-107,6.295947399999998,-75.5652126
699,699,20009474,El Sol,Belalcazar,CASTILLA,Medellin,Antioquia,CL 103#63E-59,CL 103,63E-59,CL,103,63E,59,CL 103 #63E-59,6.2957231,-75.56488359999999
701,701,20009477,Tienda Pocholo,San Antonio De Prado,SAN ANTONIO DE PRADO,Medellin,Antioquia,CR 74#42 SUR-22,CR 74,42 SUR-22,CR,74,42 SUR,22,CR 74 #42SUR-22,6.1834907,-75.6526705
704,704,20009480,Tienda Luisa,Belalcazar,CASTILLA,Medellin,Antioquia,CL 103D#63E-69,CL 103D,63E-69,CL,103D,63E,69,CL 103D #63E-69,6.2963776,-75.5649322
706,706,20009483,La Carpa,Not Specified,CASTILLA,Medellin,Antioquia,CR 64#103-54,CR 64,103-54,CR,64,103,54,CR 64 #103-54,6.2964807,-75.56564999999998
707,707,20009484,Tienda Angel,Not Specified,CASTILLA,Medellin,Antioquia,CL 103#63E-194,CL 103,63E-194,CL,103,63E,194,CL 103 #63E-194,6.2958200999999985,-75.56455720000001
708,708,20011618,Callejon Don Nely,Villa Hermosa,VILLA HERMOSA,Medellin,Antioquia,CL 66F#37-41,CL 66F,37-41,CL,66F,37,41,CL 66F #37-41,6.2596680000000005,-75.5489802
709,709,20011622,Granero La 80M,Castilla,DOCE DE OCTUBRE,Medellin,Antioquia,CL 97 # 76 - 181,CL 97 , 76 - 181,CL,97 , 76 , 181,CL 97 #76- 181,6.295360199999998,-75.58121949999999
710,710,20011628,Gayoli,Villa Hermosa,VILLA HERMOSA,Medellin,Antioquia,CL 66E#37-30,CL 66E,37-30,CL,66E,37,30,CL 66E #37-30,6.2594102,-75.54900079999999
806,806,20011632,Los Uribe,Villa Hermosa,VILLA HERMOSA,Medellin,Antioquia,CR 39#66C-59,CR 39,66C-59,CR,39,66C,59,CR 39 #66C-59,6.2589597999999995,-75.5502948
807,807,20007336,El Garage Blanco,Aranjuez,ARANJUEZ,Medellin,Antioquia,CR 50C#95-96,CR 50C,95-96,CR,50C,95,96,CR 50C #95-96,6.2882688999999985,-75.55952409999998
808,808,20007337,Perchis,Aranjuez,ARANJUEZ,Medellin,Antioquia,CR 50C#94-112,CR 50C,94-112,CR,50C,94,112,CR 50C #94-112,6.2868533,-75.5595084
809,809,20007338,Variedades Emi,Not Specified,ARANJUEZ,Medellin,Antioquia,CR 50B#95-53,CR 50B,95-53,CR,50B,95,53,CR 50B #95-53,6.2876375,-75.5591046
810,810,20007351,La 88,Aranjuez,ARANJUEZ,Medellin,Antioquia,CL 88#48-29,CL 88,48-29,CL,88,48,29,CL 88 #48-29,6.2802655,-75.55597949999998
811,811,20007368,Fruver La 96 Patri,Aranjuez,ARANJUEZ,Medellin,Antioquia,CL 96#50C-22,CL 96,50C-22,CL,96,50C,22,CL 96 #50C-22,6.288651,-75.5598504
812,812,20007370,Granero La Econolia,Aranjuez,ARANJUEZ,Medellin,Antioquia,CR 50D#96-04,CR 50D,96-04,CR,50D,96,04,CR 50D #96-04,6.288697,-75.56004399999998
813,813,20007380,La Tienda Verde,Aranjuez,ARANJUEZ,Medellin,Antioquia,CR 51 # 96 - 96 IN 101,CR 51 , 96 - 96 IN 101,CR,51 , 96 , 96 IN 101,CR 51 #96- 96 IN 101,6.289368100000001,-75.5605829
814,814,20007434,Mecatiadero De Marina,Aranjuez,ARANJUEZ,Medellin,Antioquia,CR 49B#93-93,CR 49B,93-93,CR,49B,93,93,CR 49B #93-93,6.2853753,-75.55740990000001
815,815,20007437,Casa Verde,Aranjuez,ARANJUEZ,Medellin,Antioquia,CR 50 A#92-60,CR 50 A,92-60,CR,50 A,92,60,CR 50A #92-60,6.283856200000001,-75.5584356
816,816,20007438,Parche 50ª,Aranjuez,ARANJUEZ,Medellin,Antioquia,CR 50A#92-70,CR 50A,92-70,CR,50A,92,70,CR 50A #92-70,6.2839342999999985,-75.558431
817,817,20007526,Minimercado Samy,Aranjuez,ARANJUEZ,Medellin,Antioquia,CR 49B#92-114,CR 49B,92-114,CR,49B,92,114,CR 49B #92-114,6.2842483,-75.5571563
818,818,20007527,La Gran Esquina,Aranjuez,ARANJUEZ,Medellin,Antioquia,CL 90A#49B-01,CL 90A,49B-01,CL,90A,49B,01,CL 90A #49B-01,6.2822692999999985,-75.55739809999999
819,819,20007528,Tienda Vero,Aranjuez,ARANJUEZ,Medellin,Antioquia,CL 90#50-06,CL 90,50-06,CL,90,50,06,CL 90 #50-06,6.282256599999998,-75.5580757
820,820,20007529,La Buena Gracia,Not Specified,ARANJUEZ,Medellin,Antioquia,CL 93#49B-01,CL 93,49B-01,CL,93,49B,01,CL 93 #49B-01,6.2845974,-75.55727859999999
821,821,20007530,Tienda Luz,Aranjuez,ARANJUEZ,Medellin,Antioquia,CR 49B#90-43,CR 49B,90-43,CR,49B,90,43,CR 49B #90-43,6.282549800000001,-75.5575095
822,822,20007612,Compremos,Aranjuez,ARANJUEZ,Medellin,Antioquia,CL 90#50B-05,CL 90,50B-05,CL,90,50B,05,CL 90 #50B-05,6.282080400000001,-75.55932370000001
823,823,20007646,Minimercado Apolo 13,Aranjuez,ARANJUEZ,Medellin,Antioquia,CL 94A#45A-41,CL 94A,45A-41,CL,94A,45A,41,CL 94A #45A-41,6.286339,-75.5529992
824,824,20007647,Dewtz,Aranjuez,ARANJUEZ,Medellin,Antioquia,CR 45A#94A-24,CR 45A,94A-24,CR,45A,94A,24,CR 45A #94A-24,6.2863696,-75.55265959999998
825,825,20007649,Matias,Aranjuez,ARANJUEZ,Medellin,Antioquia,CR 47#93-43,CR 47,93-43,CR,47,93,43,CR 47 #93-43,6.284846599999999,-75.55501159999999
826,826,20007650,Los Olivos,Aranjuez,ARANJUEZ,Medellin,Antioquia,CR 48#93-08,CR 48,93-08,CR,48,93,08,CR 48 #93-08,6.284548000000001,-75.55546439999998
827,827,20007651,Reja Gris,Aranjuez,POPULAR,Medellin,Antioquia,CL 97A#45A-06,CL 97A,45A-06,CL,97A,45A,06,CL 97A #45A-06,6.2889898,-75.55259090000001
828,828,20007652,Guadarajara,Aranjuez,ARANJUEZ,Medellin,Antioquia,CL 94A#45A-47,CL 94A,45A-47,CL,94A,45A,47,CL 94A #45A-47,6.286343799999999,-75.55304790000001
829,829,20007654,Variedades Aliza,Aranjuez,ARANJUEZ,Medellin,Antioquia,CR 46#93-80,CR 46,93-80,CR,46,93,80,CR 46 #93-80,6.2851313,-75.5535951
830,830,20007677,La Vacancita,Aranjuez,ARANJUEZ,Medellin,Antioquia,CR 50A#87-56,CR 50A,87-56,CR,50A,87,56,CR 50A #87-56,6.280194,-75.558408
831,831,20007678,Gabriel,Aranjuez,ARANJUEZ,Medellin,Antioquia,CL 89A#50A-30,CL 89A,50A-30,CL,89A,50A,30,CL 89A #50A-30,6.2815197,-75.5589495
832,832,20007686,Tienda Lami,Aranjuez,ARANJUEZ,Medellin,Antioquia,CR 53#92-45,CR 53,92-45,CR,53,92,45,CR 53 #92-45,6.2843447,-75.563591
833,833,20007695,Tienda Dercho,Not Specified,POPULAR,Medellin,Antioquia,CL 96#45A-21,CL 96,45A-21,CL,96,45A,21,CL 96 #45A-21,6.287501,-75.55286170000001
834,834,20007696,Tienda Otoniel,Aranjuez,ARANJUEZ,Medellin,Antioquia,CR 42#108A-53,CR 42,108A-53,CR,42,108A,53,CR 42 #108A-53,6.2766075,-75.55969300000001
835,835,20007701,Granero Y Legumbres Yireth,Aranjuez,ARANJUEZ,Medellin,Antioquia,CL 93#45-13,CL 93,45-13,CL,93,45,13,CL 93 #45-13,6.284135900000001,-75.5527512
836,836,20007704,Tienda Diana,Not Specified,ARANJUEZ,Medellin,Antioquia,CR 46A#94-49,CR 46A,94-49,CR,46A,94,49,CR 46A #94-49,6.2860514,-75.5543181
837,837,20007708,Tienda Qyq,Aranjuez,ARANJUEZ,Medellin,Antioquia,CR 50D#86B-35,CR 50D,86B-35,CR,50D,86B,35,CR 50D #86B-35,6.2793578000000005,-75.5607678
838,838,20007713,Granero Y Legumbres Guarniciones Fy,Aranjuez,POPULAR,Medellin,Antioquia,CR 46A # 96 - 45,CR 46A , 96 - 45,CR,46A , 96 , 45,CR 46A #96- 45,6.2881773,-75.5541264
839,839,20007722,Tienda La Tia,Aranjuez,POPULAR,Medellin,Antioquia,CL 95#44-63,CL 95,44-63,CL,95,44,63,CL 95 #44-63,6.2864225,-75.5516517
840,840,20007723,La Ventanita,Not Specified,ARANJUEZ,Medellin,Antioquia,CR 46A#94-35,CR 46A,94-35,CR,46A,94,35,CR 46A #94-35,6.286147799999998,-75.5542385
841,841,20007724,Variedades Mechitas,Aranjuez,ARANJUEZ,Medellin,Antioquia,CR 46A#93-78,CR 46A,93-78,CR,46A,93,78,CR 46A #93-78,6.285059400000001,-75.55406339999998
842,842,20007727,Salsamentaria Rogelin,Aranjuez,ARANJUEZ,Medellin,Antioquia,CL 95 # 49 - 40,CL 95 , 49 - 40,CL,95 , 49 , 40,CL 95 #49- 40,6.2872507,-75.556333
843,843,20007729,Tienda La Cruz,Aranjuez,ARANJUEZ,Medellin,Antioquia,CL 94#50-11,CL 94,50-11,CL,94,50,11,CL 94 #50-11,6.285823400000001,-75.5579937
844,844,20007730,Braema,Aranjuez,ARANJUEZ,Medellin,Antioquia,CR 50#94-106,CR 50,94-106,CR,50,94,106,CR 50 #94-106,6.286760399999999,-75.55765179999999
845,845,20007731,El Mejorbpunto,Not Specified,ARANJUEZ,Medellin,Antioquia,CR 50A#93-116,CR 50A,93-116,CR,50A,93,116,CR 50A #93-116,6.285587400000001,-75.55834859999999
846,846,20007735,El Ambiente,Not Specified,ARANJUEZ,Medellin,Antioquia,CR 50AA#87-134,CR 50AA,87-134,CR,50AA,87,134,CR 50AA #87-134,6.2805287000000005,-75.55901159999998
847,847,20007736,Minimercado La Manga,Aranjuez,ARANJUEZ,Medellin,Antioquia,CR 50BB#87-00,CR 50BB,87-00,CR,50BB,87,00,CR 50BB #87-00,6.2765225,-75.56019289999998
848,848,20007738,Tienda Sys,Not Specified,ARANJUEZ,Medellin,Antioquia,CR 51#89-01,CR 51,89-01,CR,51,89,01,CR 51 #89-01,6.281267099999999,-75.5611603
849,849,20007741,Tienda Vero,Aranjuez,ARANJUEZ,Medellin,Antioquia,CL 85#52A-24,CL 85,52A-24,CL,85,52A,24,CL 85 #52A-24,6.2791497000000005,-75.56679869999998
850,850,20007745,Alaska,Aranjuez,ARANJUEZ,Medellin,Antioquia,CR 48#95-02,CR 48,95-02,CR,48,95,02,CR 48 #95-02,6.2870629000000005,-75.555368
851,851,20007747,Garaje Blanco,Aranjuez,ARANJUEZ,Medellin,Antioquia,CR 50#95-77,CR 50,95-77,CR,50,95,77,CR 50 #95-77,6.287771299999998,-75.55789709999998
852,852,20007748,Tienda Nueva Esquina,Aranjuez,POPULAR,Medellin,Antioquia,CR 96#59-6,CR 96,59-6,CR,96,59,6,CR 96 #59-6,6.2877263,-75.5501903
853,853,20007749,Granero Las Minitas,Not Specified,ARANJUEZ,Medellin,Antioquia,CR 50B#94-120,CR 50B,94-120,CR,50B,94,120,CR 50B #94-120,6.286885499999999,-75.55887940000001
854,854,20007750,Reja Cafe,Aranjuez,ARANJUEZ,Medellin,Antioquia,CR 50D#94-56,CR 50D,94-56,CR,50D,94,56,CR 50D #94-56,6.2864404999999985,-75.5601202
855,855,20007751,Tienda Nena,Aranjuez,ARANJUEZ,Medellin,Antioquia,CR 50 D # 94 -83,CR 50 D , 94 -83,CR,50 D , 94 ,83,CR 50D #94-83,6.286676399999998,-75.5604199
856,856,20007758,La Ventanita,Aranjuez,ARANJUEZ,Medellin,Antioquia,CR 57A # 83B-140,CR 57A , 83B-140,CR,57A , 83B,140,CR 57A #83B-140,6.277906,-75.56548599999998
857,857,20007776,La Gran Esquina,Not Specified,POPULAR,Medellin,Antioquia,CR 44A#96-76,CR 44A,96-76,CR,44A,96,76,CR 44A #96-76,6.2881323999999985,-75.55153359999998
858,858,20007778,Garage Green,Aranjuez,ARANJUEZ,Medellin,Antioquia,CL 97#45A-54,CL 97,45A-54,CL,97,45A,54,CL 97 #45A-54,6.2901681,-75.561408
859,859,20007779,Tienda Marina,Aranjuez,ARANJUEZ,Medellin,Antioquia,CL 97#45A-59,CL 97,45A-59,CL,97,45A,59,CL 97 #45A-59,6.2901681,-75.561408
860,860,20007864,Panadería Del M,Not Specified,ARANJUEZ,Medellin,Antioquia,CL 89#54B-25,CL 89,54B-25,CL,89,54B,25,CL 89 #54B-25,6.2814150999999985,-75.5657384
861,861,20007905,Yulahen,Aranjuez,ARANJUEZ,Medellin,Antioquia,CR 46#89-118,CR 46,89-118,CR,46,89,118,CR 46 #89-118,6.2818325999999995,-75.5535301
862,862,20007907,Margarita,Aranjuez,ARANJUEZ,Medellin,Antioquia,CL 92#46-49,CL 92,46-49,CL,92,46,49,CL 92 #46-49,6.283037500000002,-75.55420059999999
863,863,20007912,Tienda Win,Aranjuez,ARANJUEZ,Medellin,Antioquia,CR 47#92-113,CR 47,92-113,CR,47,92,113,CR 47 #92-113,6.284138599999999,-75.55503540000001
864,864,20007916,Luyan,Not Specified,ARANJUEZ,Medellin,Antioquia,CR 49A#92-24,CR 49A,92-24,CR,49A,92,24,CR 49A #92-24,6.2835019,-75.5565428
865,865,20007918,Bambu,Aranjuez,ARANJUEZ,Medellin,Antioquia,CR 49B#92-44,CR 49B,92-44,CR,49B,92,44,CR 49B #92-44,6.2836739,-75.55719030000002
866,866,20007921,Fruvercosta,Aranjuez,ARANJUEZ,Medellin,Antioquia,CL 93#49B-21,CL 93,49B-21,CL,93,49B,21,CL 93 #49B-21,6.2844487,-75.557414
867,867,20007922,Punto Arana,Aranjuez,ARANJUEZ,Medellin,Antioquia,CR 50#92-78,CR 50,92-78,CR,50,92,78,CR 50 #92-78,6.2841806,-75.55770489999998
868,868,20007923,Tienda Pompilio,Aranjuez,ARANJUEZ,Medellin,Antioquia,CL 90#49B-35,CL 90,49B-35,CL,90,49B,35,CL 90 #49B-35,6.2819667,-75.5577574
869,869,20007925,Tienda Lj,Aranjuez,ARANJUEZ,Medellin,Antioquia,CR 49A#90-52,CR 49A,90-52,CR,49A,90,52,CR 49A #90-52,6.282607700000001,-75.5567092
870,870,20007928,Distribuidora Silver,Not Specified,ARANJUEZ,Medellin,Antioquia,CL 92#50-41,CL 92,50-41,CL,92,50,41,CL 92 #50-41,6.2832599999999985,-75.55832819999998
871,871,20007930,Helados Gloria,Not Specified,ARANJUEZ,Medellin,Antioquia,CR 53#93-52,CR 53,93-52,CR,53,93,52,CR 53 #93-52,6.2858335,-75.56291449999998
872,872,20007931,Granero 2F,Aranjuez,ARANJUEZ,Medellin,Antioquia,CR 53#94A-01,CR 53,94A-01,CR,53,94A,01,CR 53 #94A-01,6.286772,-75.56328119999998
873,873,20007938,Granero La Palma,Aranjuez,ARANJUEZ,Medellin,Antioquia,CL 91#50B-68,CL 91,50B-68,CL,91,50B,68,CL 91 #50B-68,6.283145800000002,-75.55982589999998
874,874,20007939,Granero Bedoya,Not Specified,ARANJUEZ,Medellin,Antioquia,CR 50C#92-03,CR 50C,92-03,CR,50C,92,03,CR 50C #92-03,6.2834683999999985,-75.5598504
875,875,20007942,Tienda Nicolle,Aranjuez,ARANJUEZ,Medellin,Antioquia,CR 45A#89-131,CR 45A,89-131,CR,45A,89,131,CR 45A #89-131,6.269321400000001,-75.5552221
876,876,20007943,Berlin,Aranjuez,ARANJUEZ,Medellin,Antioquia,CR 45A#90-05,CR 45A,90-05,CR,45A,90,05,CR 45A #90-05,6.2820060999999985,-75.5531228
877,877,20007944,Tienda Lalo,Aranjuez,MANRIQUE,Medellin,Antioquia,CR 45#88-54,CR 45,88-54,CR,45,88,54,CR 45 #88-54,6.280866000000001,-75.55255
878,878,20007945,La Cristalina,Aranjuez,ARANJUEZ,Medellin,Antioquia,CR 46#86-33,CR 46,86-33,CR,46,86,33,CR 46 #86-33,6.2792069,-75.55417709999998
879,879,20007949,La Maria,Aranjuez,ARANJUEZ,Medellin,Antioquia,CL 89#47-05,CL 89,47-05,CL,89,47,05,CL 89 #47-05,6.2807673,-75.55505769999998
880,880,20007950,La Amistad,Not Specified,ARANJUEZ,Medellin,Antioquia,CR 47#89-47,CR 47,89-47,CR,47,89,47,CR 47 #89-47,6.2812801,-75.555154
881,881,20007951,Legumbre G M,Aranjuez,ARANJUEZ,Medellin,Antioquia,CL 90#46A-50,CL 90,46A-50,CL,90,46A,50,CL 90 #46A-50,6.282251800000001,-75.5547304
882,882,20007952,Rapitienda Banckoc,Aranjuez,ARANJUEZ,Medellin,Antioquia,CR 48#89A-72,CR 48,89A-72,CR,48,89A,72,CR 48 #89A-72,6.2818903,-75.55543519999998
883,883,20007953,Salsamentria Frutos,Aranjuez,ARANJUEZ,Medellin,Antioquia,CL 89#48-04,CL 89,48-04,CL,89,48,04,CL 89 #48-04,6.2809235,-75.5557221
884,884,20007955,Granero El Parque,Aranjuez,ARANJUEZ,Medellin,Antioquia,CR 49#89-97,CR 49,89-97,CR,49,89,97,CR 49 #89-97,6.2817112999999996,-75.5561946
885,885,20007956,Tienda Beatriz,Aranjuez,ARANJUEZ,Medellin,Antioquia,CR 49#90-88,CR 49,90-88,CR,49,90,88,CR 49 #90-88,6.2827639999999985,-75.5560184
886,886,20007958,Mercados Pedrolo,Aranjuez,ARANJUEZ,Medellin,Antioquia,CR 51#91-13,CR 51,91-13,CR,51,91,13,CR 51 #91-13,6.2827549000000005,-75.56131119999998
887,887,20007959,Tienda Mildre,Aranjuez,ARANJUEZ,Medellin,Antioquia,CR 46#87-16,CR 46,87-16,CR,46,87,16,CR 46 #87-16,6.2799149000000005,-75.5537356
888,888,20007960,Tiendo Don Mateo,Aranjuez,ARANJUEZ,Medellin,Antioquia,CL 90#46A-45,CL 90,46A-45,CL,90,46A,45,CL 90 #46A-45,6.281978899999999,-75.55474170000001
889,889,20007965,Mados,Aranjuez,ARANJUEZ,Medellin,Antioquia,CR 51#89-04,CR 51,89-04,CR,51,89,04,CR 51 #89-04,6.281292499999998,-75.5611603
890,890,20007968,Quinta Del Jardin3216606429,Aranjuez,ARANJUEZ,Medellin,Antioquia,CL 88B#51B-03,CL 88B,51B-03,CL,88B,51B,03,CL 88B #51B-03,6.281119400000001,-75.56251879999998
891,891,20007972,La Reja Verde,Aranjuez,ARANJUEZ,Medellin,Antioquia,CR 55#90-82,CR 55,90-82,CR,55,90,82,CR 55 #90-82,6.2836062,-75.565185
892,892,20007973,Granero Y Carnicería La Buena Esqui,Not Specified,ARANJUEZ,Medellin,Antioquia,CR 55#94CC-31,CR 55,94CC-31,CR,55,94CC,31,CR 55 #94CC-31,6.2872305,-75.56445819999998
893,893,20007974,Santa Marta,Not Specified,ARANJUEZ,Medellin,Antioquia,CL 94CC#55-36,CL 94CC,55-36,CL,94CC,55,36,CL 94CC #55-36,6.287367799999998,-75.56464809999999
894,894,20007975,Legumbre La Amistad,Aranjuez,ARANJUEZ,Medellin,Antioquia,CR 51B#86-42,CR 51B,86-42,CR,51B,86,42,CR 51B #86-42,6.2792279,-75.5619871
895,895,20007991,Los Tios,Not Specified,ARANJUEZ,Medellin,Antioquia,CL 92B#53A-06,CL 92B,53A-06,CL,92B,53A,06,CL 92B #53A-06,6.2848671,-75.5637642
896,896,20007993,Puerto Escondido,Aranjuez,ARANJUEZ,Medellin,Antioquia,CL 92A#53-22,CL 92A,53-22,CL,92A,53,22,CL 92A #53-22,6.2844027,-75.5637551
898,898,20008007,Justo Para Ti,Aranjuez,ARANJUEZ,Medellin,Antioquia,"CL 94A#55-,28",CL 94A,"55-,28",CL,94A,55,",28","CL 94A #55-,28",6.2865679000000005,-75.56462379999998
899,899,20008033,Tienda Rocio,Not Specified,MANRIQUE,Medellin,Antioquia,CL 91#31A-36,CL 91,31A-36,CL,91,31A,36,CL 91 #31A-36,6.282293399999999,-75.54724709999998
900,900,20008041,La Zarca,Aranjuez,ARANJUEZ,Medellin,Antioquia,CR 51A#92-125,CR 51A,92-125,CR,51A,92,125,CR 51A #92-125,6.2844742999999985,-75.5617295
901,901,20008044,La Reja Café,Aranjuez,ARANJUEZ,Medellin,Antioquia,CL 92#46A-30,CL 92,46A-30,CL,92,46A,30,CL 92 #46A-30,6.2833669,-75.55457
902,902,20008045,Tienda Y Legumbre La Ventanita,Not Specified,ARANJUEZ,Medellin,Antioquia,CL 92#55-24,CL 92,55-24,CL,92,55,24,CL 92 #55-24,6.2844462,-75.5654926
903,903,20009641,Reja Gris,Not Specified,ARANJUEZ,Medellin,Antioquia,CR 48#95-05,CR 48,95-05,CR,48,95,05,CR 48 #95-05,6.287095900000001,-75.5553645
904,904,20009645,La Tienda De Juan,Aranjuez,ARANJUEZ,Medellin,Antioquia,CR 49#95-02,CR 49,95-02,CR,49,95,02,CR 49 #95-02,6.287090900000001,-75.5559686
905,905,20009649,Los Recuerdos De Ella,Aranjuez,ARANJUEZ,Medellin,Antioquia,CR 49A#95-104,CR 49A,95-104,CR,49A,95,104,CR 49A #95-104,6.2879227,-75.55632220000001
906,906,20009686,Mercadiario La Pila,Aranjuez,POPULAR,Medellin,Antioquia,CR 44A#94-134,CR 44A,94-134,CR,44A,94,134,CR 44A #94-134,6.2855675,-75.5517309
907,907,20009778,Donde El Profe,Not Specified,ARANJUEZ,Medellin,Antioquia,CR 46A#94-19,CR 46A,94-19,CR,46A,94,19,CR 46A #94-19,6.2858310999999985,-75.5543292
908,908,20009785,Tienda El Tío,Aranjuez,ARANJUEZ,Medellin,Antioquia,CL 92#46A-19,CL 92,46A-19,CL,92,46A,19,CL 92 #46A-19,6.2830825,-75.5544998
909,909,20009792,La Palma,Aranjuez,ARANJUEZ,Medellin,Antioquia,CR 46A#90-35,CR 46A,90-35,CR,46A,90,35,CR 46A #90-35,6.2823948,-75.5544963
910,910,20009803,Tienda Gonzalo,Not Specified,ARANJUEZ,Medellin,Antioquia,CR 47#94-17,CR 47,94-17,CR,47,94,17,CR 47 #94-17,6.2858431,-75.5547572
911,911,20009806,Bar Social Anda Luz,Not Specified,ARANJUEZ,Medellin,Antioquia,CR 48#92-121,CR 48,92-121,CR,48,92,121,CR 48 #92-121,6.2842389,-75.5556543
912,912,20009834,Rey,Aranjuez,ARANJUEZ,Medellin,Antioquia,CR 50C#94-83,CR 50C,94-83,CR,50C,94,83,CR 50C #94-83,6.2866339999999985,-75.5598213
913,913,20009841,Granos Y Legumbres Fc,Aranjuez,ARANJUEZ,Medellin,Antioquia,CR 50C#93-105,CR 50C,93-105,CR,50C,93,105,CR 50C #93-105,6.2855732999999985,-75.55985279999999
914,914,20009886,Vilbao La 58,Not Specified,ARANJUEZ,Medellin,Antioquia,CR 52#93-6,CR 52,93-6,CR,52,93,6,CR 52 #93-6,6.2849821,-75.5625012
915,915,20010012,El Almendro,Aranjuez,ARANJUEZ,Medellin,Antioquia,CR 50B#95-64,CR 50B,95-64,CR,50B,95,64,CR 50B #95-64,6.2877112,-75.55880669999998
916,916,20010149,Salsamentaria Villa Rica,Aranjuez,POPULAR,Medellin,Antioquia,CR 46 # 95A - 19,CR 46 , 95A - 19,CR,46 , 95A , 19,CR 46 #95A- 19,6.2871795,-75.55355949999999
917,917,20009485,Venus,Belalcazar,CASTILLA,Medellin,Antioquia,CR 64B#103D-37,CR 64B,103D-37,CR,64B,103D,37,CR 64B #103D-37,6.2978742,-75.56632019999998
918,918,20009486,La Esquina,Belalcazar,CASTILLA,Medellin,Antioquia,CR 64A#103D-5,CR 64A,103D-5,CR,64A,103D,5,CR 64A #103D-5,6.2972923,-75.5655068
919,919,20009487,El Mono,Belalcazar,CASTILLA,Medellin,Antioquia,CL 103#63E-10,CL 103,63E-10,CL,103,63E,10,CL 103 #63E-10,6.295706999999998,-75.5643943
920,920,20009488,Esqinazo,Not Specified,CASTILLA,Medellin,Antioquia,CR 63D#63-5,CR 63D,63-5,CR,63D,63,5,CR 63D #63-5,6.3092346,-75.5590148
921,921,20009492,La Tienda De La Torre,Belalcazar,CASTILLA,Medellin,Antioquia,CR 64#103-35,CR 64,103-35,CR,64,103,35,CR 64 #103-35,6.2966684000000015,-75.5655113
923,923,20009495,Tienda Sergio,La Paralela,CASTILLA,Medellin,Antioquia,CR 63 # 109A-44,CR 63 , 109A-44,CR,63 , 109A,44,CR 63 #109A-44,6.300145000000001,-75.55853599999998
924,924,20011633,Ventiadero,Castilla,DOCE DE OCTUBRE,Medellin,Antioquia,CR 76#96-31,CR 76,96-31,CR,76,96,31,CR 76 #96-31,6.2941519,-75.5798848
925,925,20011644,Las Nieves,Villatina,Comuna 8,Medellin,Not Specified,CL 56D#14-43,CL 56D,14-43,CL,56D,14,43,CL 56D #14-43,,
926,926,20011657,La Frontera,Villa Hermosa,VILLA HERMOSA,Medellin,Antioquia,CR 37#63A-64,CR 37,63A-64,CR,37,63A,64,CR 37 #63A-64,6.2539278,-75.55278840000001
927,927,20011661,Tienda Teilor,Villa Hermosa,VILLA HERMOSA,Medellin,Antioquia,CR 36A # 63-93,CR 36A , 63-93,CR,36A , 63,93,CR 36A #63-93,6.2542065000000004,-75.5521322
928,928,20011663,Tienda Leo,Castilla,DOCE DE OCTUBRE,Medellin,Antioquia,CL 96 # 75-37,CL 96 , 75-37,CL,96 , 75,37,CL 96 #75-37,6.2933058,-75.57916440000001
929,929,20011671,Tienda Jj,Castilla,DOCE DE OCTUBRE,Medellin,Antioquia,CR 74B#96-35,CR 74B,96-35,CR,74B,96,35,CR 74B #96-35,6.2935155,-75.57837109999998
930,930,20011676,Tienda Laura,Castilla,DOCE DE OCTUBRE,Medellin,Antioquia,CL 95#74-39,CL 95,74-39,CL,95,74,39,CL 95 #74-39,6.2916851,-75.57829149999998
931,931,20011679,Abarrotes Santamaría,Castilla,DOCE DE OCTUBRE,Medellin,Antioquia,CL 96#74-45,CL 96,74-45,CL,96,74,45,CL 96 #74-45,6.2929347999999985,-75.5778725
932,932,20011683,Papelería Y Variedades,Castilla,DOCE DE OCTUBRE,Medellin,Antioquia,CR 74#96-17,CR 74,96-17,CR,74,96,17,CR 74 #96-17,6.2930525,-75.5774647
934,934,20011698,Tienda Linda,La Libertad,VILLA HERMOSA,Medellin,Antioquia,CR 20B # 56A - 70,CR 20B , 56A - 70,CR,20B , 56A , 70,CR 20B #56A- 70,6.2406853999999985,-75.54243319999998
935,935,20011700,Merca Todo La Libertad,La Libertad,VILLA HERMOSA,Medellin,Antioquia,CL 56B#20B-20,CL 56B,20B-20,CL,56B,20B,20,CL 56B #20B-20,6.2410682999999985,-75.5422179
936,936,20011703,Tienda Lucy,La Libertad,VILLA HERMOSA,Medellin,Antioquia,CL 56 BE#20B-166,CL 56 BE,20B-166,CL,56 BE,20B,166,CL 56BE #20B-166,6.242082900000001,-75.5414945
937,937,20011705,Mercados Familia,Girardot,CASTILLA,Medellin,Antioquia,CL 104#64D-85,CL 104,64D-85,CL,104,64D,85,CL 104 #64D-85,6.301476099999999,-75.5659795
938,938,20011713,Tienda De Álvaro,San Antonio,CASTILLA,Medellin,Antioquia,CR 60D#34SUR-06,CR 60D,34SUR-06,CR,60D,34SUR,06,CR 60D #34SUR-06,6.307666299999998,-75.5580978
939,939,20011714,Tienda La Cuesta,Golondrinas,VILLA HERMOSA,Medellin,Antioquia,CR 18B#62-52,CR 18B,62-52,CR,18B,62,52,CR 18B #62-52,6.2546791,-75.54004789999998
940,940,20011718,La Banca,San Antonio,SAN ANTONIO DE PRADO,Medellin,Antioquia,CL 43 SUR # 9 - 50,CL 43 SUR , 9 - 50,CL,43 SUR , 9 , 50,CL 43SUR #9- 50,6.1840004,-75.6566495
941,941,20011721,Feber,Caicedo,VILLA HERMOSA,Medellin,Antioquia,CL 52A#23-07,CL 52A,23-07,CL,52A,23,07,CL 52A #23-07,6.240703900000001,-75.54596679999999
942,942,20011724,La Tienda De Pio,San Antonio,SAN ANTONIO DE PRADO,Medellin,Antioquia,CL 41 SUR#84-31,CL 41 SUR,84-31,CL,41 SUR,84,31,CL 41SUR #84-31,6.1852243,-75.6553216
943,943,20011734,Revuelteria Punto Verde,Golondrinas,LA CANDELARIA,Medellin,Antioquia,CL 65#16DDD-251,CL 65,16DDD-251,CL,65,16DDD,251,CL 65 #16DDD-251,6.2476376,-75.56581530000003
954,954,20007744,Tienda La Esquina,Not Specified,ARANJUEZ,Medellin,Antioquia,CL 51B#94-02,CL 51B,94-02,CL,51B,94,02,CL 51B #94-02,6.286093900000001,-75.5621302
955,955,20009852,Tienda Carpa Azul,Not Specified,ARANJUEZ,Medellin,Antioquia,CL 93#50D-25,CL 93,50D-25,CL,93,50D,25,CL 93 #50D-25,6.2846215,-75.5606147
956,956,20009857,Cigarrera Tiempos,Not Specified,ARANJUEZ,Medellin,Antioquia,CL 94#51B-34,CL 94,51B-34,CL,94,51B,34,CL 94 #51B-34,6.2862731,-75.562389
959,959,20007385,Reja Verde,Aranjuez,ARANJUEZ,Medellin,Antioquia,CL 97A#51B-12,CL 97A,51B-12,CL,97A,51B,12,CL 97A #51B-12,6.2911410000000005,-75.5622575
960,960,20007718,Punto Ve,Not Specified,POPULAR,Medellin,Antioquia,CR 47#97-61,CR 47,97-61,CR,47,97,61,CR 47 #97-61,6.2891086,-75.5547721
961,961,20007726,La Carpita,Aranjuez,ARANJUEZ,Medellin,Antioquia,CL 97#46A-40,CL 97,46A-40,CL,97,46A,40,CL 97 #46A-40,6.2901672999999985,-75.5613896
962,962,20007777,La Nueva Esquina,Aranjuez,POPULAR,Medellin,Antioquia,CR 45A#97-49,CR 45A,97-49,CR,45A,97,49,CR 45A #97-49,6.2880476,-75.55281610000002
963,963,20008139,Granero Marlondi,Not Specified,SANTA CRUZ,Medellin,Antioquia,CL 98#49-81,CL 98,49-81,CL,98,49,81,CL 98 #49-81,6.2899816999999985,-75.5569507
964,964,20012761,Los Angeles,Aranjuez,ARANJUEZ,Medellin,Antioquia,CL 99 # 52-95 IN 1109,CL 99 , 52-95 IN 1109,CL,99 , 52,95 IN 1109,CL 99 #52-95 IN 1109,6.2882991,-75.56280859999998
968,968,20009621,El Paisano,Aranjuez,ARANJUEZ,Medellin,Antioquia,CR 50B # 96 - 32,CR 50B , 96 - 32,CR,50B , 96 , 32,CR 50B #96- 32,6.2885882,-75.5595891
970,970,20011751,La  Tienda De Elete,Belalcazar,CASTILLA,Medellin,Antioquia,CR 64AA#103D-77,CR 64AA,103D-77,CR,64AA,103D,77,CR 64AA #103D-77,6.2978736999999985,-75.5658064
971,971,20011752,Tienda Yupi,Santander,DOCE DE OCTUBRE,Medellin,Antioquia,CR 77D#108A-28,CR 77D,108A-28,CR,77D,108A,28,CR 77D #108A-28,6.307717999999999,-75.5740896
972,972,20011753,Granero Centro Americá,Belalcazar,CASTILLA,Medellin,Antioquia,CL 103#64-103,CL 103,64-103,CL,103,64,103,CL 103 #64-103,6.2966668,-75.56632590000001
973,973,20011764,Tienda Variedades,Doce De Octubre N 1,DOCE DE OCTUBRE,Medellin,Antioquia,CL 107A#81-113,CL 107A,81-113,CL,107A,81,113,CL 107A #81-113,6.3088248,-75.57819359999998
974,974,20011766,Tienda A Y J,Doce De Octubre N 1,DOCE DE OCTUBRE,Medellin,Antioquia,CL 107A#81-76,CL 107A,81-76,CL,107A,81,76,CL 107A #81-76,6.308724400000001,-75.57783719999998
975,975,20011769,Mercados Y Cigarrera Matias,Alfonso Lopez,CASTILLA,Medellin,Antioquia,CR 72 # 90-07,CR 72 , 90-07,CR,72 , 90,07,CR 72 #90-07,6.285532099999998,-75.57837479999998
976,976,20011771,Betel,Caicedo,LA CANDELARIA,Medellin,Antioquia,CL 52#17-15,CL 52,17-15,CL,52,17,15,CL 52 #17-15,6.2518291,-75.56928190000001
977,977,20009818,El Jardín,Aranjuez,ARANJUEZ,Medellin,Antioquia,CR 50B#95-31,CR 50B,95-31,CR,50B,95,31,CR 50B #95-31,6.287579900000001,-75.5590771
978,978,20011773,Los Mejia,Buenos Aires,BUENOS AIRES,Medellin,Antioquia,CL 46#27-49,CL 46,27-49,CL,46,27,49,CL 46 #27-49,6.2373504,-75.5522005
979,979,20009501,Tienda S Y S,Pedregal,DOCE DE OCTUBRE,Medellin,Antioquia,CL 104#70-172,CL 104,70-172,CL,104,70,172,CL 104 #70-172,6.301161799999999,-75.5713073
980,980,20011785,Distribuidora Eli,Kennedy,DOCE DE OCTUBRE,Medellin,Antioquia,CR 74C#89A-51,CR 74C,89A-51,CR,74C,89A,51,CR 74C #89A-51,6.2860684000000004,-75.58059190000002
981,981,20011786,Tienda Encasa,Caicedo,LA CANDELARIA,Medellin,Antioquia,CR 28A#52-10,CR 28A,52-10,CR,28A,52,10,CR 28A #52-10,6.2476376,-75.56581530000003
983,983,20009506,Salsamentaria Pyp,Not Specified,CASTILLA,Medellin,Antioquia,CL 113#72-109,CL 113,72-109,CL,113,72,109,CL 113 #72-109,6.3089862,-75.5694577
984,984,20009508,Tienda Ramon,Pedregal,CASTILLA,Medellin,Antioquia,CL 104#68A-09,CL 104,68A-09,CL,104,68A,09,CL 104 #68A-09,6.3002224999999985,-75.5691715
986,986,20009510,Ventanita Paulina,Pedregal,DOCE DE OCTUBRE,Medellin,Antioquia,CL 103D#74-38,CL 103D,74-38,CL,103D,74,38,CL 103D #74-38,6.301282400000002,-75.5728417
989,989,20009518,Revuelteria Argiro,Pedregal,ROBLEDO,Medellin,Antioquia,CR 71A#105F-11,CR 71A,105F-11,CR,71A,105F,11,CR 71A #105F-11,6.2820580999999995,-75.57566820000001
990,990,20009519,Papelería Gabi,Pedregal,DOCE DE OCTUBRE,Medellin,Antioquia,CL 104 A # 76-104,CL 104 A , 76-104,CL,104 A , 76,104,CL 104A #76-104,6.3026611,-75.57474739999998
991,991,20009520,El Viaje Trianque,Castilla,DOCE DE OCTUBRE,Medellin,Antioquia,CL 94#78A-39,CL 94,78A-39,CL,94,78A,39,CL 94 #78A-39,6.2917556,-75.5827171
992,992,20009521,Mercados Salomé,Castilla,DOCE DE OCTUBRE,Medellin,Antioquia,CR 78A#92-153,CR 78A,92-153,CR,78A,92,153,CR 78A #92-153,6.2908393,-75.5826732
993,993,20009522,El Progreso,Castilla,DOCE DE OCTUBRE,Medellin,Antioquia,CR 78A#92-105,CR 78A,92-105,CR,78A,92,105,CR 78A #92-105,6.2904712,-75.5827943
994,994,20009524,Mercados La 77,Not Specified,DOCE DE OCTUBRE,Medellin,Antioquia,CR 77#92-242,CR 77,92-242,CR,77,92,242,CR 77 #92-242,6.291315,-75.5818439
998,998,20009529,Tienda Ana,Villatina,VILLA HERMOSA,Medellin,Antioquia,CR 16 # 54-12,CR 16 , 54-12,CR,16 , 54,12,CR 16 #54-12,6.2371162,-75.53976540000001
1000,1000,20009531,Tienda Bibi,Kennedy,EL POBLADO,Medellin,Antioquia,CR 33#107C-13,CR 33,107C-13,CR,33,107C,13,CR 33 #107C-13,6.1992837,-75.5761368
1001,1001,20011787,Tienda David,Villatina,VILLA HERMOSA,Medellin,Antioquia,CR 16#56B-10,CR 16,56B-10,CR,16,56B,10,CR 16 #56B-10,6.2395529000000005,-75.5387892
1002,1002,20009532,Tienda Luz,Kennedy,DOCE DE OCTUBRE,Medellin,Antioquia,CR 77#92-99,CR 77,92-99,CR,77,92,99,CR 77 #92-99,6.2902892999999995,-75.5824094
1003,1003,20009533,Surtialimento,Not Specified,DOCE DE OCTUBRE,Medellin,Antioquia,CR 92#76-41,CR 92,76-41,CR,92,76,41,CR 92 #76-41,6.2892018,-75.5820115
1004,1004,20009534,Tienda De Pacho La Piquiña,San Antonio De Prado,SAN ANTONIO DE PRADO,Medellin,Antioquia,CL 53SUR#63-62,CL 53SUR,63-62,CL,53SUR,63,62,CL 53SUR #63-62,6.1753098999999985,-75.64491340000001
1005,1005,20009535,El Parche Es Suyo,Kennedy,DOCE DE OCTUBRE,Medellin,Antioquia,CR 73B#93-30,CR 73B,93-30,CR,73B,93,30,CR 73B #93-30,6.289257599999999,-75.57809069999998
1006,1006,20009536,Granero La Sabila,San Antonio De Prado,SAN ANTONIO DE PRADO,Medellin,Antioquia,CL 40A SUR#70-57,CL 40A SUR,70-57,CL,40A SUR,70,57,CL 40ASUR #70-57,6.1853954999999985,-75.6527713
1007,1007,20009537,Rapitienda El Campesino,Not Specified,DOCE DE OCTUBRE,Medellin,Antioquia,CL 104A#74-25,CL 104A,74-25,CL,104A,74,25,CL 104A #74-25,6.3020456,-75.57263619999998
1008,1008,20009538,Auto Servicio El Paisa,Pedregal,DOCE DE OCTUBRE,Medellin,Antioquia,CR 72#103D-16,CR 72,103D-16,CR,72,103D,16,CR 72 #103D-16,6.300585900000001,-75.5714165
1009,1009,20009539,El Viejo Baraton,Pedregal,DOCE DE OCTUBRE,Medellin,Antioquia,CL 104#71-95,CL 104,71-95,CL,104,71,95,CL 104 #71-95,6.3007594000000005,-75.5712829
1010,1010,20009540,Tienda Y Pan,Héctor Abad Gómez,CASTILLA,Medellin,Antioquia,CR 63A#103G-72,CR 63A,103G-72,CR,63A,103G,72,CR 63A #103G-72,6.299069299999998,-75.559882
1011,1011,20009541,Minuto De Dios,Héctor Abad Gómez,CASTILLA,Medellin,Antioquia,CR 63A#103GG-121,CR 63A,103GG-121,CR,63A,103GG,121,CR 63A #103GG-121,6.2989359999999985,-75.560074
1012,1012,20009542,Minimercado Plaza Colon,Héctor Abad Gómez,CASTILLA,Medellin,Antioquia,CR 63B#109-12,CR 63B,109-12,CR,63B,109,12,CR 63B #109-12,6.3024292,-75.55897840000002
1013,1013,20009543,Dulcería Toscana,Not Specified,CASTILLA,Medellin,Antioquia,CR 63A#111CC-15,CR 63A,111CC-15,CR,63A,111CC,15,CR 63A #111CC-15,6.3038397,-75.5581902
1014,1014,20009544,Milagroso,Santander,DOCE DE OCTUBRE,Medellin,Antioquia,UNDEFINED 80#108A-27,UNDEFINED 80,108A-27,UNDEFINED,80,108A,27,UNDEFINED 80 #108A-27,6.308210099999999,-75.5743906
1016,1016,20009546,M Y S Confit,Not Specified,CASTILLA,Medellin,Antioquia,CR 64#111D-15,CR 64,111D-15,CR,64,111D,15,CR 64 #111D-15,6.3044507,-75.5588834
1017,1017,20009547,Tienda Aleida,Not Specified,DOCE DE OCTUBRE,Medellin,Antioquia,CR 79#112-12,CR 79,112-12,CR,79,112,12,CR 79 #112-12,6.3096913,-75.5754816
1018,1018,20009548,Gratopan,Not Specified,CASTILLA,Medellin,Antioquia,CR 64#111E-05,CR 64,111E-05,CR,64,111E,05,CR 64 #111E-05,6.3048069999999985,-75.5587075
1019,1019,20009549,Panadería Hugo,López De Mesa,ROBLEDO,Medellin,Antioquia,CL 84#71C-24,CL 84,71C-24,CL,84,71C,24,CL 84 #71C-24,6.282176100000001,-75.57722969999998
1020,1020,20009550,La Palma,Santander,DOCE DE OCTUBRE,Medellin,Antioquia,CR 78C#114-69,CR 78C,114-69,CR,78C,114,69,CR 78C #114-69,6.310161,-75.57521299999998
1021,1021,20009551,Panadería Rigo,Not Specified,CASTILLA,Medellin,Antioquia,CR 66#111A-02,CR 66,111A-02,CR,66,111A,02,CR 66 #111A-02,6.306342400000001,-75.56539980000001
1022,1022,20009552,Sandra Loaiza,Castilla,ROBLEDO,Medellin,Antioquia,CR 71A#85A-13,CR 71A,85A-13,CR,71A,85A,13,CR 71A #85A-13,6.2820478999999985,-75.5757646
1023,1023,20009553,Tienda La Palma,Toscana,CASTILLA,Medellin,Antioquia,CL 111F#64A-08,CL 111F,64A-08,CL,111F,64A,08,CL 111F #64A-08,6.3055083,-75.5593032
1024,1024,20009554,La Ventanita,Santander,DOCE DE OCTUBRE,Medellin,Antioquia,CL 112A#76C-59,CL 112A,76C-59,CL,112A,76C,59,CL 112A #76C-59,6.309455199999999,-75.5726335
1025,1025,20009555,El Altico De La 70,Córdoba,ROBLEDO,Medellin,Antioquia,CR 70#80-07,CR 70,80-07,CR,70,80,07,CR 70 #80-07,6.2789337,-75.5772137
1026,1026,20009557,Tienda Jorge,Santander,DOCE DE OCTUBRE,Medellin,Antioquia,CR 77E#115-08,CR 77E,115-08,CR,77E,115,08,CR 77E #115-08,6.3097113999999985,-75.574449
1027,1027,20009559,La Reja Negra,Alfonso López,CASTILLA,Medellin,Antioquia,CL 90#67A-50,CL 90,67A-50,CL,90,67A,50,CL 90 #67A-50,6.2828947999999984,-75.57419770000001
1028,1028,20009560,Tienda La Fania,Robledo,ROBLEDO,Medellin,Antioquia,CR 71 # 80 - 100,CR 71 , 80 - 100,CR,71 , 80 , 100,CR 71 #80- 100,6.279723799999998,-75.57703149999998
1029,1029,20009562,Salomaz,Alfonso López,CASTILLA,Medellin,Antioquia,CL 91#67A-32,CL 91,67A-32,CL,91,67A,32,CL 91 #67A-32,6.2833665000000005,-75.57412120000001
1030,1030,20009563,Mercado Los Primitos,Pedregal,DOCE DE OCTUBRE,Medellin,Antioquia,CR 74#105A-28,CR 74,105A-28,CR,74,105A,28,CR 74 #105A-28,6.3032783,-75.571046
1031,1031,20009564,La Tapita,Kennedy,DOCE DE OCTUBRE,Medellin,Antioquia,CR 78#90-3,CR 78,90-3,CR,78,90,3,CR 78 #90-3,6.2875660999999985,-75.58325500000002
1032,1032,20011789,Tienda Donde Neche,Pedregal,DOCE DE OCTUBRE,Medellin,Antioquia,CR 76#104D-20,CR 76,104D-20,CR,76,104D,20,CR 76 #104D-20,6.3045987,-75.57375350000001
1033,1033,20011803,Dónde Sandra,Lopez De Mesa,CASTILLA,Medellin,Antioquia,CR 71C#89B-12,CR 71C,89B-12,CR,71C,89B,12,CR 71C #89B-12,6.2849119999999985,-75.5784589
1034,1034,20011805,La Reja Gris,Lopez De Mesa,CASTILLA,Medellin,Antioquia,CR 71B#89B-24,CR 71B,89B-24,CR,71B,89B,24,CR 71B #89B-24,6.284483799999999,-75.5782886
1035,1035,20011807,Tienda La Fe,Santander,LA CANDELARIA,Medellin,Antioquia,CR 20F # 63-03,CR 20F , 63-03,CR,20F , 63,03,CR 20F #63-03,6.2476376,-75.56581530000003
1036,1036,20011808,Tienda Rosa,Santander,DOCE DE OCTUBRE,Medellin,Antioquia,CL 116#77-62,CL 116,77-62,CL,116,77,62,CL 116 #77-62,6.310493900000001,-75.5745152
1329,1329,20011809,Tienda Doris,Pedregal,DOCE DE OCTUBRE,Medellin,Antioquia,CL 104D#75-72,CL 104D,75-72,CL,104D,75,72,CL 104D #75-72,6.3043860999999985,-75.5737671
1661,1661,20007997,La Esperanza,Aranjuez,ARANJUEZ,Medellin,Antioquia,CL 92#55-24,CL 92,55-24,CL,92,55,24,CL 92 #55-24,6.2844462,-75.5654926
2110,2110,20008508,Autoservicio La 19,Llanaditas,VILLA HERMOSA,Medellin,Antioquia,CR 19 # 56 FH - 25,CR 19 , 56 FH - 25,CR,19 , 56 FH , 25,CR 19 #56FH- 25,6.247305700000001,-75.5418428
2154,2154,20011308,La Verdolaga,Moravia,Comuna 4,Medellin,Not Specified,CR 58 # 85 B  6,CR 58 , 85 B  6,CR,58 , 85 B  6,,CR 58 #85B6,,
2157,2157,20007373,Granero La 43,Manrique Central Nº 1,MANRIQUE,Medellin,Antioquia,CR 43#81-02,CR 43,81-02,CR,43,81,02,CR 43 #81-02,6.2733,-75.5519108
2158,2158,20007404,La Esquina De Gloria,Campo Valdes Nº 1,MANRIQUE,Medellin,Antioquia,CL 81#42A-03,CL 81,42A-03,CL,81,42A,03,CL 81 #42A-03,6.2732275999999985,-75.5514469
2159,2159,20007450,El Progreso,San Isidro,ARANJUEZ,Medellin,Antioquia,CR 52#93-81,CR 52,93-81,CR,52,93,81,CR 52 #93-81,6.285518799999998,-75.562822
2160,2160,20007493,Mg Manrique,Not Specified,MANRIQUE,Medellin,Antioquia,CR 42A#81-86,CR 42A,81-86,CR,42A,81,86,CR 42A #81-86,6.273867099999999,-75.5511746
2161,2161,20007753,Garaje Castrillo,Moravia,ARANJUEZ,Medellin,Antioquia,CR 57#85B-13,CR 57,85B-13,CR,57,85B,13,CR 57 #85B-13,6.279902799999999,-75.5661277
2162,2162,20007755,Nury Express,Moravia,ARANJUEZ,Medellin,Antioquia,CR 57A#83B-16,CR 57A,83B-16,CR,57A,83B,16,CR 57A #83B-16,6.2777268999999984,-75.56531640000001
2163,2163,20007764,Tienda Jf,Moravia,ARANJUEZ,Medellin,Antioquia,CR 57#85-14,CR 57,85-14,CR,57,85,14,CR 57 #85-14,6.2796718,-75.5658668
2164,2164,20007765,La Reja Negra,Moravia,ARANJUEZ,Medellin,Antioquia,CL 86A#57-70,CL 86A,57-70,CL,86A,57,70,CL 86A #57-70,6.2800837,-75.56691789999998
2165,2165,20007767,Reja Cafe,Moravia,ARANJUEZ,Medellin,Antioquia,CR 57#88-67,CR 57,88-67,CR,57,88,67,CR 57 #88-67,6.2819866,-75.5675823
2166,2166,20007768,Tienda El Acopio,Moravia,ARANJUEZ,Medellin,Antioquia,CR 58#85-10,CR 58,85-10,CR,58,85,10,CR 58 #85-10,6.2793552,-75.56650490000001
2167,2167,20007769,Tienda El Chaco,Moravia,ARANJUEZ,Medellin,Antioquia,CR 57#83B-240,CR 57,83B-240,CR,57,83B,240,CR 57 #83B-240,6.2777803,-75.5652851
2168,2168,20007770,Granero Pto Limon,Moravia,ARANJUEZ,Medellin,Antioquia,CR 57#83B-45,CR 57,83B-45,CR,57,83B,45,CR 57 #83B-45,6.2777803,-75.5652851
2169,2169,20007773,Torres De Marfil,Moravia,ARANJUEZ,Medellin,Antioquia,CL 83B # 58B - 43,CL 83B , 58B - 43,CL,83B , 58B , 43,CL 83B #58B- 43,6.2767946,-75.5659187
2170,2170,20007793,La Ventanita,Moravia,ARANJUEZ,Medellin,Antioquia,CR 57#86A-09,CR 57,86A-09,CR,57,86A,09,CR 57 #86A-09,6.2802763,-75.56651070000001
2171,2171,20007815,Ilucion De David,Not Specified,ARANJUEZ,Medellin,Antioquia,CR 52C#88-82,CR 52C,88-82,CR,52C,88,82,CR 52C #88-82,6.2811097,-75.56448859999998
2172,2172,20007821,Granero La 81,Not Specified,LA CANDELARIA,Medellin,Antioquia,UNDEFINED 42#80-78,UNDEFINED 42,80-78,UNDEFINED,42,80,78,UNDEFINED 42 #80-78,6.2476376,-75.56581530000003
2173,2173,20007822,Tienda La 78,Las Granjas,MANRIQUE,Medellin,Antioquia,CL 78#40-66,CL 78,40-66,CL,78,40,66,CL 78 #40-66,6.270413,-75.5500608
2174,2174,20007824,Tienda Julio,Not Specified,MANRIQUE,Medellin,Antioquia,CR 41A#80-32,CR 41A,80-32,CR,41A,80,32,CR 41A #80-32,6.2723672,-75.55042449999998
2175,2175,20007871,Saya,Bermejal - Los Álamos,ARANJUEZ,Medellin,Antioquia,CL 88A#54B-37,CL 88A,54B-37,CL,88A,54B,37,CL 88A #54B-37,6.281142099999999,-75.56629090000001
2176,2176,20007876,Tiendas Y Legumbrería Bethel,Bermejal - Los Álamos,ARANJUEZ,Medellin,Antioquia,CR55C #89_13 EL OASIS,CR55C ,89_13 EL OASIS,CR55C,,89_13 EL OASIS,,CR55C #89_13ELOASIS,6.2812705,-75.564787
2177,2177,20007881,Tienda Nueva,Moravia,ARANJUEZ,Medellin,Antioquia,CR 55A#89-106,CR 55A,89-106,CR,55A,89,106,CR 55A #89-106,6.2747915,-75.5656973
